[
  {
    "city": "Goroka",
    "country": "Papua New Guinea",
    "iata": "GKA",
    "id": "1",
    "lat": -6.081689834590001,
    "lng": 145.391998291,
    "name": "Goroka Airport"
  },
  {
    "city": "Madang",
    "country": "Papua New Guinea",
    "iata": "MAG",
    "id": "2",
    "lat": -5.20707988739,
    "lng": 145.789001465,
    "name": "Madang Airport"
  },
  {
    "city": "Mount Hagen",
    "country": "Papua New Guinea",
    "iata": "HGU",
    "id": "3",
    "lat": -5.826789855957031,
    "lng": 144.29600524902344,
    "name": "Mount Hagen Kagamuga Airport"
  },
  {
    "city": "Nadzab",
    "country": "Papua New Guinea",
    "iata": "LAE",
    "id": "4",
    "lat": -6.569803,
    "lng": 146.725977,
    "name": "Nadzab Airport"
  },
  {
    "city": "Port Moresby",
    "country": "Papua New Guinea",
    "iata": "POM",
    "id": "5",
    "lat": -9.443380355834961,
    "lng": 147.22000122070312,
    "name": "Port Moresby Jacksons International Airport"
  },
  {
    "city": "Wewak",
    "country": "Papua New Guinea",
    "iata": "WWK",
    "id": "6",
    "lat": -3.58383011818,
    "lng": 143.669006348,
    "name": "Wewak International Airport"
  },
  {
    "city": "Narssarssuaq",
    "country": "Greenland",
    "iata": "UAK",
    "id": "7",
    "lat": 61.1604995728,
    "lng": -45.4259986877,
    "name": "Narsarsuaq Airport"
  },
  {
    "city": "Godthaab",
    "country": "Greenland",
    "iata": "GOH",
    "id": "8",
    "lat": 64.19090271,
    "lng": -51.6781005859,
    "name": "Godthaab / Nuuk Airport"
  },
  {
    "city": "Sondrestrom",
    "country": "Greenland",
    "iata": "SFJ",
    "id": "9",
    "lat": 67.0122218992,
    "lng": -50.7116031647,
    "name": "Kangerlussuaq Airport"
  },
  {
    "city": "Thule",
    "country": "Greenland",
    "iata": "THU",
    "id": "10",
    "lat": 76.5311965942,
    "lng": -68.7032012939,
    "name": "Thule Air Base"
  },
  {
    "city": "Akureyri",
    "country": "Iceland",
    "iata": "AEY",
    "id": "11",
    "lat": 65.66000366210938,
    "lng": -18.07270050048828,
    "name": "Akureyri Airport"
  },
  {
    "city": "Egilsstadir",
    "country": "Iceland",
    "iata": "EGS",
    "id": "12",
    "lat": 65.2833023071289,
    "lng": -14.401399612426758,
    "name": "Egilsstaðir Airport"
  },
  {
    "city": "Hofn",
    "country": "Iceland",
    "iata": "HFN",
    "id": "13",
    "lat": 64.295601,
    "lng": -15.2272,
    "name": "Hornafjörður Airport"
  },
  {
    "city": "Husavik",
    "country": "Iceland",
    "iata": "HZK",
    "id": "14",
    "lat": 65.952301,
    "lng": -17.426001,
    "name": "Húsavík Airport"
  },
  {
    "city": "Isafjordur",
    "country": "Iceland",
    "iata": "IFJ",
    "id": "15",
    "lat": 66.05809783935547,
    "lng": -23.135299682617188,
    "name": "Ísafjörður Airport"
  },
  {
    "city": "Keflavik",
    "country": "Iceland",
    "iata": "KEF",
    "id": "16",
    "lat": 63.985000610352,
    "lng": -22.605600357056,
    "name": "Keflavik International Airport"
  },
  {
    "city": "Patreksfjordur",
    "country": "Iceland",
    "iata": "PFJ",
    "id": "17",
    "lat": 65.555801,
    "lng": -23.965,
    "name": "Patreksfjörður Airport"
  },
  {
    "city": "Reykjavik",
    "country": "Iceland",
    "iata": "RKV",
    "id": "18",
    "lat": 64.1299972534,
    "lng": -21.9405994415,
    "name": "Reykjavik Airport"
  },
  {
    "city": "Siglufjordur",
    "country": "Iceland",
    "iata": "SIJ",
    "id": "19",
    "lat": 66.133301,
    "lng": -18.9167,
    "name": "Siglufjörður Airport"
  },
  {
    "city": "Vestmannaeyjar",
    "country": "Iceland",
    "iata": "VEY",
    "id": "20",
    "lat": 63.42430114746094,
    "lng": -20.278900146484375,
    "name": "Vestmannaeyjar Airport"
  },
  {
    "city": "Sault Sainte Marie",
    "country": "Canada",
    "iata": "YAM",
    "id": "21",
    "lat": 46.48500061035156,
    "lng": -84.5093994140625,
    "name": "Sault Ste Marie Airport"
  },
  {
    "city": "Winnipeg",
    "country": "Canada",
    "iata": "\\N",
    "id": "22",
    "lat": 50.0564002991,
    "lng": -97.03250122070001,
    "name": "Winnipeg / St. Andrews Airport"
  },
  {
    "city": "Halifax",
    "country": "Canada",
    "iata": "\\N",
    "id": "23",
    "lat": 44.639702,
    "lng": -63.499401,
    "name": "Halifax / CFB Shearwater Heliport"
  },
  {
    "city": "St. Anthony",
    "country": "Canada",
    "iata": "YAY",
    "id": "24",
    "lat": 51.3918991089,
    "lng": -56.083099365200006,
    "name": "St. Anthony Airport"
  },
  {
    "city": "Tofino",
    "country": "Canada",
    "iata": "YAZ",
    "id": "25",
    "lat": 49.079833,
    "lng": -125.775583,
    "name": "Tofino / Long Beach Airport"
  },
  {
    "city": "Pelly Bay",
    "country": "Canada",
    "iata": "YBB",
    "id": "26",
    "lat": 68.534401,
    "lng": -89.808098,
    "name": "Kugaaruk Airport"
  },
  {
    "city": "Baie Comeau",
    "country": "Canada",
    "iata": "YBC",
    "id": "27",
    "lat": 49.13249969482422,
    "lng": -68.20439910888672,
    "name": "Baie Comeau Airport"
  },
  {
    "city": "Bagotville",
    "country": "Canada",
    "iata": "YBG",
    "id": "28",
    "lat": 48.33060073852539,
    "lng": -70.99639892578125,
    "name": "CFB Bagotville"
  },
  {
    "city": "Baker Lake",
    "country": "Canada",
    "iata": "YBK",
    "id": "29",
    "lat": 64.29889678960001,
    "lng": -96.077796936,
    "name": "Baker Lake Airport"
  },
  {
    "city": "Campbell River",
    "country": "Canada",
    "iata": "YBL",
    "id": "30",
    "lat": 49.950801849365234,
    "lng": -125.27100372314453,
    "name": "Campbell River Airport"
  },
  {
    "city": "Brandon",
    "country": "Canada",
    "iata": "YBR",
    "id": "31",
    "lat": 49.91,
    "lng": -99.951897,
    "name": "Brandon Municipal Airport"
  },
  {
    "city": "Cambridge Bay",
    "country": "Canada",
    "iata": "YCB",
    "id": "32",
    "lat": 69.1081008911,
    "lng": -105.138000488,
    "name": "Cambridge Bay Airport"
  },
  {
    "city": "Nanaimo",
    "country": "Canada",
    "iata": "YCD",
    "id": "33",
    "lat": 49.054970224899996,
    "lng": -123.869862556,
    "name": "Nanaimo Airport"
  },
  {
    "city": "Castlegar",
    "country": "Canada",
    "iata": "YCG",
    "id": "34",
    "lat": 49.2963981628,
    "lng": -117.632003784,
    "name": "Castlegar/West Kootenay Regional Airport"
  },
  {
    "city": "Chatham",
    "country": "Canada",
    "iata": "YCH",
    "id": "35",
    "lat": 47.007801,
    "lng": -65.449203,
    "name": "Miramichi Airport"
  },
  {
    "city": "Charlo",
    "country": "Canada",
    "iata": "YCL",
    "id": "36",
    "lat": 47.990799,
    "lng": -66.330299,
    "name": "Charlo Airport"
  },
  {
    "city": "Coppermine",
    "country": "Canada",
    "iata": "YCO",
    "id": "37",
    "lat": 67.816704,
    "lng": -115.143997,
    "name": "Kugluktuk Airport"
  },
  {
    "city": "Coronation",
    "country": "Canada",
    "iata": "YCT",
    "id": "38",
    "lat": 52.0750007629,
    "lng": -111.444999695,
    "name": "Coronation Airport"
  },
  {
    "city": "Chilliwack",
    "country": "Canada",
    "iata": "YCW",
    "id": "39",
    "lat": 49.1528015137,
    "lng": -121.939002991,
    "name": "Chilliwack Airport"
  },
  {
    "city": "Clyde River",
    "country": "Canada",
    "iata": "YCY",
    "id": "40",
    "lat": 70.4860992432,
    "lng": -68.5167007446,
    "name": "Clyde River Airport"
  },
  {
    "city": "Coral Harbour",
    "country": "Canada",
    "iata": "YZS",
    "id": "41",
    "lat": 64.1932983398,
    "lng": -83.3593978882,
    "name": "Coral Harbour Airport"
  },
  {
    "city": "Dawson",
    "country": "Canada",
    "iata": "YDA",
    "id": "42",
    "lat": 64.04309844970703,
    "lng": -139.1280059814453,
    "name": "Dawson City Airport"
  },
  {
    "city": "Burwash",
    "country": "Canada",
    "iata": "YDB",
    "id": "43",
    "lat": 61.37110137939453,
    "lng": -139.04100036621094,
    "name": "Burwash Airport"
  },
  {
    "city": "Princeton",
    "country": "Canada",
    "iata": "\\N",
    "id": "44",
    "lat": 49.4681015015,
    "lng": -120.511001587,
    "name": "Princeton Airport"
  },
  {
    "city": "Deer Lake",
    "country": "Canada",
    "iata": "YDF",
    "id": "45",
    "lat": 49.21080017089844,
    "lng": -57.39139938354492,
    "name": "Deer Lake Airport"
  },
  {
    "city": "Dease Lake",
    "country": "Canada",
    "iata": "YDL",
    "id": "46",
    "lat": 58.4221992493,
    "lng": -130.031997681,
    "name": "Dease Lake Airport"
  },
  {
    "city": "Dauphin",
    "country": "Canada",
    "iata": "YDN",
    "id": "47",
    "lat": 51.100799560546875,
    "lng": -100.052001953125,
    "name": "Dauphin Barker Airport"
  },
  {
    "city": "Dawson Creek",
    "country": "Canada",
    "iata": "YDQ",
    "id": "48",
    "lat": 55.7422981262207,
    "lng": -120.18299865722656,
    "name": "Dawson Creek Airport"
  },
  {
    "city": "Edmonton",
    "country": "Canada",
    "iata": "YEG",
    "id": "49",
    "lat": 53.309700012200004,
    "lng": -113.580001831,
    "name": "Edmonton International Airport"
  },
  {
    "city": "Eskimo Point",
    "country": "Canada",
    "iata": "YEK",
    "id": "50",
    "lat": 61.0942001343,
    "lng": -94.07080078119999,
    "name": "Arviat Airport"
  },
  {
    "city": "Estevan",
    "country": "Canada",
    "iata": "YEN",
    "id": "51",
    "lat": 49.2103004456,
    "lng": -102.966003418,
    "name": "Estevan Airport"
  },
  {
    "city": "Edson",
    "country": "Canada",
    "iata": "YET",
    "id": "52",
    "lat": 53.578899383499994,
    "lng": -116.464996338,
    "name": "Edson Airport"
  },
  {
    "city": "Eureka",
    "country": "Canada",
    "iata": "YEU",
    "id": "53",
    "lat": 79.9946975708,
    "lng": -85.814201355,
    "name": "Eureka Airport"
  },
  {
    "city": "Inuvik",
    "country": "Canada",
    "iata": "YEV",
    "id": "54",
    "lat": 68.30419921880001,
    "lng": -133.483001709,
    "name": "Inuvik Mike Zubko Airport"
  },
  {
    "city": "Iqaluit",
    "country": "Canada",
    "iata": "YFB",
    "id": "55",
    "lat": 63.756402,
    "lng": -68.555801,
    "name": "Iqaluit Airport"
  },
  {
    "city": "Fredericton",
    "country": "Canada",
    "iata": "YFC",
    "id": "56",
    "lat": 45.868900299072266,
    "lng": -66.53720092773438,
    "name": "Fredericton Airport"
  },
  {
    "city": "Forestville",
    "country": "Canada",
    "iata": "YFE",
    "id": "57",
    "lat": 48.74610137939453,
    "lng": -69.09719848632812,
    "name": "Forestville Airport"
  },
  {
    "city": "Flin Flon",
    "country": "Canada",
    "iata": "YFO",
    "id": "58",
    "lat": 54.6781005859375,
    "lng": -101.68199920654297,
    "name": "Flin Flon Airport"
  },
  {
    "city": "Fort Resolution",
    "country": "Canada",
    "iata": "YFR",
    "id": "59",
    "lat": 61.1808013916,
    "lng": -113.690002441,
    "name": "Fort Resolution Airport"
  },
  {
    "city": "Fort Simpson",
    "country": "Canada",
    "iata": "YFS",
    "id": "60",
    "lat": 61.76020050048828,
    "lng": -121.23699951171875,
    "name": "Fort Simpson Airport"
  },
  {
    "city": "Kingston",
    "country": "Canada",
    "iata": "YGK",
    "id": "61",
    "lat": 44.22529983520508,
    "lng": -76.5969009399414,
    "name": "Kingston Norman Rogers Airport"
  },
  {
    "city": "La Grande Riviere",
    "country": "Canada",
    "iata": "YGL",
    "id": "62",
    "lat": 53.625301361083984,
    "lng": -77.7042007446289,
    "name": "La Grande Rivière Airport"
  },
  {
    "city": "Gaspe",
    "country": "Canada",
    "iata": "YGP",
    "id": "63",
    "lat": 48.7752990723,
    "lng": -64.4785995483,
    "name": "Gaspé (Michel-Pouliot) Airport"
  },
  {
    "city": "Geraldton",
    "country": "Canada",
    "iata": "YGQ",
    "id": "64",
    "lat": 49.77830123901367,
    "lng": -86.93939971923828,
    "name": "Geraldton Greenstone Regional Airport"
  },
  {
    "city": "Iles De La Madeleine",
    "country": "Canada",
    "iata": "YGR",
    "id": "65",
    "lat": 47.42470169067383,
    "lng": -61.778099060058594,
    "name": "Îles-de-la-Madeleine Airport"
  },
  {
    "city": "Hudson Bay",
    "country": "Canada",
    "iata": "YHB",
    "id": "66",
    "lat": 52.8166999817,
    "lng": -102.310997009,
    "name": "Hudson Bay Airport"
  },
  {
    "city": "Dryden",
    "country": "Canada",
    "iata": "YHD",
    "id": "67",
    "lat": 49.831699,
    "lng": -92.744202,
    "name": "Dryden Regional Airport"
  },
  {
    "city": "Holman Island",
    "country": "Canada",
    "iata": "YHI",
    "id": "68",
    "lat": 70.76280212402344,
    "lng": -117.80599975585938,
    "name": "Ulukhaktok Holman Airport"
  },
  {
    "city": "Gjoa Haven",
    "country": "Canada",
    "iata": "YHK",
    "id": "69",
    "lat": 68.635597229,
    "lng": -95.84970092770001,
    "name": "Gjoa Haven Airport"
  },
  {
    "city": "Hamilton",
    "country": "Canada",
    "iata": "YHM",
    "id": "70",
    "lat": 43.173599243199995,
    "lng": -79.93499755859999,
    "name": "John C. Munro Hamilton International Airport"
  },
  {
    "city": "Montreal",
    "country": "Canada",
    "iata": "YHU",
    "id": "71",
    "lat": 45.5175018311,
    "lng": -73.4169006348,
    "name": "Montréal / Saint-Hubert Airport"
  },
  {
    "city": "Hay River",
    "country": "Canada",
    "iata": "YHY",
    "id": "72",
    "lat": 60.8396987915,
    "lng": -115.782997131,
    "name": "Hay River / Merlyn Carter Airport"
  },
  {
    "city": "Halifax",
    "country": "Canada",
    "iata": "YHZ",
    "id": "73",
    "lat": 44.8807983398,
    "lng": -63.5085983276,
    "name": "Halifax / Stanfield International Airport"
  },
  {
    "city": "Atikokan",
    "country": "Canada",
    "iata": "YIB",
    "id": "74",
    "lat": 48.7738990784,
    "lng": -91.6386032104,
    "name": "Atikokan Municipal Airport"
  },
  {
    "city": "Pond Inlet",
    "country": "Canada",
    "iata": "YIO",
    "id": "75",
    "lat": 72.6832962036,
    "lng": -77.9666976929,
    "name": "Pond Inlet Airport"
  },
  {
    "city": "St. Jean",
    "country": "Canada",
    "iata": "YJN",
    "id": "76",
    "lat": 45.29439926147461,
    "lng": -73.28109741210938,
    "name": "St Jean Airport"
  },
  {
    "city": "Stephenville",
    "country": "Canada",
    "iata": "YJT",
    "id": "77",
    "lat": 48.5442008972168,
    "lng": -58.54999923706055,
    "name": "Stephenville Airport"
  },
  {
    "city": "Kamloops",
    "country": "Canada",
    "iata": "YKA",
    "id": "78",
    "lat": 50.7022018433,
    "lng": -120.444000244,
    "name": "Kamloops Airport"
  },
  {
    "city": "Waterloo",
    "country": "Canada",
    "iata": "YKF",
    "id": "79",
    "lat": 43.460800170899994,
    "lng": -80.3786010742,
    "name": "Waterloo Airport"
  },
  {
    "city": "Schefferville",
    "country": "Canada",
    "iata": "YKL",
    "id": "80",
    "lat": 54.805301666259766,
    "lng": -66.8052978515625,
    "name": "Schefferville Airport"
  },
  {
    "city": "Kindersley",
    "country": "Canada",
    "iata": "YKY",
    "id": "81",
    "lat": 51.5175018311,
    "lng": -109.180999756,
    "name": "Kindersley Airport"
  },
  {
    "city": "Toronto",
    "country": "Canada",
    "iata": "YKZ",
    "id": "82",
    "lat": 43.86220169067383,
    "lng": -79.37000274658203,
    "name": "Buttonville Municipal Airport"
  },
  {
    "city": "Chapleau",
    "country": "Canada",
    "iata": "YLD",
    "id": "83",
    "lat": 47.81999969482422,
    "lng": -83.3467025756836,
    "name": "Chapleau Airport"
  },
  {
    "city": "Meadow Lake",
    "country": "Canada",
    "iata": "YLJ",
    "id": "84",
    "lat": 54.125301361083984,
    "lng": -108.52300262451172,
    "name": "Meadow Lake Airport"
  },
  {
    "city": "Lloydminster",
    "country": "Canada",
    "iata": "YLL",
    "id": "85",
    "lat": 53.309200286865234,
    "lng": -110.072998046875,
    "name": "Lloydminster Airport"
  },
  {
    "city": "Alert",
    "country": "Canada",
    "iata": "YLT",
    "id": "86",
    "lat": 82.51779937740001,
    "lng": -62.2806015015,
    "name": "Alert Airport"
  },
  {
    "city": "Kelowna",
    "country": "Canada",
    "iata": "YLW",
    "id": "87",
    "lat": 49.9561004639,
    "lng": -119.377998352,
    "name": "Kelowna International Airport"
  },
  {
    "city": "Mayo",
    "country": "Canada",
    "iata": "YMA",
    "id": "88",
    "lat": 63.61640167236328,
    "lng": -135.8679962158203,
    "name": "Mayo Airport"
  },
  {
    "city": "Moose Jaw",
    "country": "Canada",
    "iata": "YMJ",
    "id": "89",
    "lat": 50.330299377441406,
    "lng": -105.55899810791016,
    "name": "Moose Jaw Air Vice Marshal C. M. McEwen Airport"
  },
  {
    "city": "Fort Mcmurray",
    "country": "Canada",
    "iata": "YMM",
    "id": "90",
    "lat": 56.653301239,
    "lng": -111.222000122,
    "name": "Fort McMurray Airport"
  },
  {
    "city": "Moosonee",
    "country": "Canada",
    "iata": "YMO",
    "id": "91",
    "lat": 51.291099548339844,
    "lng": -80.60780334472656,
    "name": "Moosonee Airport"
  },
  {
    "city": "Maniwaki",
    "country": "Canada",
    "iata": "YMW",
    "id": "92",
    "lat": 46.2728004456,
    "lng": -75.9906005859,
    "name": "Maniwaki Airport"
  },
  {
    "city": "Montreal",
    "country": "Canada",
    "iata": "YMX",
    "id": "93",
    "lat": 45.679501,
    "lng": -74.038696,
    "name": "Montreal International (Mirabel) Airport"
  },
  {
    "city": "Natashquan",
    "country": "Canada",
    "iata": "YNA",
    "id": "94",
    "lat": 50.189998626708984,
    "lng": -61.78919982910156,
    "name": "Natashquan Airport"
  },
  {
    "city": "Gatineau",
    "country": "Canada",
    "iata": "YND",
    "id": "95",
    "lat": 45.521701812699995,
    "lng": -75.5635986328,
    "name": "Ottawa / Gatineau Airport"
  },
  {
    "city": "Matagami",
    "country": "Canada",
    "iata": "YNM",
    "id": "96",
    "lat": 49.76169967651367,
    "lng": -77.80280303955078,
    "name": "Matagami Airport"
  },
  {
    "city": "Old Crow",
    "country": "Canada",
    "iata": "YOC",
    "id": "97",
    "lat": 67.57060241699219,
    "lng": -139.83900451660156,
    "name": "Old Crow Airport"
  },
  {
    "city": "Cold Lake",
    "country": "Canada",
    "iata": "YOD",
    "id": "98",
    "lat": 54.404998779296875,
    "lng": -110.27899932861328,
    "name": "CFB Cold Lake"
  },
  {
    "city": "High Level",
    "country": "Canada",
    "iata": "YOJ",
    "id": "99",
    "lat": 58.62139892578125,
    "lng": -117.16500091552734,
    "name": "High Level Airport"
  },
  {
    "city": "Ottawa",
    "country": "Canada",
    "iata": "YOW",
    "id": "100",
    "lat": 45.3224983215332,
    "lng": -75.66919708251953,
    "name": "Ottawa Macdonald-Cartier International Airport"
  },
  {
    "city": "Prince Albert",
    "country": "Canada",
    "iata": "YPA",
    "id": "101",
    "lat": 53.214199066199996,
    "lng": -105.672996521,
    "name": "Prince Albert Glass Field"
  },
  {
    "city": "Peace River",
    "country": "Canada",
    "iata": "YPE",
    "id": "102",
    "lat": 56.226898,
    "lng": -117.446999,
    "name": "Peace River Airport"
  },
  {
    "city": "Portage-la-prairie",
    "country": "Canada",
    "iata": "YPG",
    "id": "103",
    "lat": 49.903099,
    "lng": -98.273817,
    "name": "Southport Airport"
  },
  {
    "city": "Pitt Meadows",
    "country": "Canada",
    "iata": "\\N",
    "id": "104",
    "lat": 49.21609878540039,
    "lng": -122.70999908447266,
    "name": "Pitt Meadows Airport"
  },
  {
    "city": "Pickle Lake",
    "country": "Canada",
    "iata": "YPL",
    "id": "105",
    "lat": 51.4463996887207,
    "lng": -90.21420288085938,
    "name": "Pickle Lake Airport"
  },
  {
    "city": "Port Menier",
    "country": "Canada",
    "iata": "YPN",
    "id": "106",
    "lat": 49.83639907836914,
    "lng": -64.2885971069336,
    "name": "Port Menier Airport"
  },
  {
    "city": "Peterborough",
    "country": "Canada",
    "iata": "YPQ",
    "id": "107",
    "lat": 44.22999954223633,
    "lng": -78.36329650878906,
    "name": "Peterborough Airport"
  },
  {
    "city": "Prince Pupert",
    "country": "Canada",
    "iata": "YPR",
    "id": "108",
    "lat": 54.286098480199996,
    "lng": -130.445007324,
    "name": "Prince Rupert Airport"
  },
  {
    "city": "Fort Chipewyan",
    "country": "Canada",
    "iata": "YPY",
    "id": "109",
    "lat": 58.7672004699707,
    "lng": -111.11699676513672,
    "name": "Fort Chipewyan Airport"
  },
  {
    "city": "Muskoka",
    "country": "Canada",
    "iata": "YQA",
    "id": "110",
    "lat": 44.974700927734375,
    "lng": -79.30329895019531,
    "name": "Muskoka Airport"
  },
  {
    "city": "Quebec",
    "country": "Canada",
    "iata": "YQB",
    "id": "111",
    "lat": 46.7911,
    "lng": -71.393303,
    "name": "Quebec Jean Lesage International Airport"
  },
  {
    "city": "Red Deer Industrial",
    "country": "Canada",
    "iata": "YQF",
    "id": "112",
    "lat": 52.18220138549805,
    "lng": -113.89399719238281,
    "name": "Red Deer Regional Airport"
  },
  {
    "city": "Windsor",
    "country": "Canada",
    "iata": "YQG",
    "id": "113",
    "lat": 42.27560043334961,
    "lng": -82.95559692382812,
    "name": "Windsor Airport"
  },
  {
    "city": "Watson Lake",
    "country": "Canada",
    "iata": "YQH",
    "id": "114",
    "lat": 60.11640167236328,
    "lng": -128.82200622558594,
    "name": "Watson Lake Airport"
  },
  {
    "city": "Kenora",
    "country": "Canada",
    "iata": "YQK",
    "id": "115",
    "lat": 49.788299560546875,
    "lng": -94.36309814453125,
    "name": "Kenora Airport"
  },
  {
    "city": "Lethbridge",
    "country": "Canada",
    "iata": "YQL",
    "id": "116",
    "lat": 49.6302986145,
    "lng": -112.800003052,
    "name": "Lethbridge County Airport"
  },
  {
    "city": "Moncton",
    "country": "Canada",
    "iata": "YQM",
    "id": "117",
    "lat": 46.11220169067383,
    "lng": -64.67859649658203,
    "name": "Greater Moncton International Airport"
  },
  {
    "city": "Comox",
    "country": "Canada",
    "iata": "YQQ",
    "id": "119",
    "lat": 49.71080017089844,
    "lng": -124.88700103759766,
    "name": "Comox Airport"
  },
  {
    "city": "Regina",
    "country": "Canada",
    "iata": "YQR",
    "id": "120",
    "lat": 50.43190002441406,
    "lng": -104.66600036621094,
    "name": "Regina International Airport"
  },
  {
    "city": "Thunder Bay",
    "country": "Canada",
    "iata": "YQT",
    "id": "121",
    "lat": 48.37189865112305,
    "lng": -89.32389831542969,
    "name": "Thunder Bay Airport"
  },
  {
    "city": "Grande Prairie",
    "country": "Canada",
    "iata": "YQU",
    "id": "122",
    "lat": 55.1796989441,
    "lng": -118.885002136,
    "name": "Grande Prairie Airport"
  },
  {
    "city": "Yorkton",
    "country": "Canada",
    "iata": "YQV",
    "id": "123",
    "lat": 51.26470184326172,
    "lng": -102.46199798583984,
    "name": "Yorkton Municipal Airport"
  },
  {
    "city": "North Battleford",
    "country": "Canada",
    "iata": "YQW",
    "id": "124",
    "lat": 52.76919937133789,
    "lng": -108.24400329589844,
    "name": "North Battleford Airport"
  },
  {
    "city": "Gander",
    "country": "Canada",
    "iata": "YQX",
    "id": "125",
    "lat": 48.9369010925293,
    "lng": -54.56809997558594,
    "name": "Gander International Airport"
  },
  {
    "city": "Sydney",
    "country": "Canada",
    "iata": "YQY",
    "id": "126",
    "lat": 46.1614,
    "lng": -60.047798,
    "name": "Sydney / J.A. Douglas McCurdy Airport"
  },
  {
    "city": "Quesnel",
    "country": "Canada",
    "iata": "YQZ",
    "id": "127",
    "lat": 53.026100158691406,
    "lng": -122.51000213623047,
    "name": "Quesnel Airport"
  },
  {
    "city": "Resolute",
    "country": "Canada",
    "iata": "YRB",
    "id": "128",
    "lat": 74.7169036865,
    "lng": -94.9693984985,
    "name": "Resolute Bay Airport"
  },
  {
    "city": "Riviere Du Loup",
    "country": "Canada",
    "iata": "YRI",
    "id": "129",
    "lat": 47.764400482177734,
    "lng": -69.58470153808594,
    "name": "Rivière-du-Loup Airport"
  },
  {
    "city": "Roberval",
    "country": "Canada",
    "iata": "YRJ",
    "id": "130",
    "lat": 48.52000045776367,
    "lng": -72.2656021118164,
    "name": "Roberval Airport"
  },
  {
    "city": "Rocky Mountain House",
    "country": "Canada",
    "iata": "YRM",
    "id": "131",
    "lat": 52.4296989441,
    "lng": -114.903999329,
    "name": "Rocky Mountain House Airport"
  },
  {
    "city": "Rankin Inlet",
    "country": "Canada",
    "iata": "YRT",
    "id": "132",
    "lat": 62.8114013672,
    "lng": -92.1157989502,
    "name": "Rankin Inlet Airport"
  },
  {
    "city": "Sudbury",
    "country": "Canada",
    "iata": "YSB",
    "id": "133",
    "lat": 46.625,
    "lng": -80.79889678955078,
    "name": "Sudbury Airport"
  },
  {
    "city": "Sherbrooke",
    "country": "Canada",
    "iata": "YSC",
    "id": "134",
    "lat": 45.4385986328125,
    "lng": -71.69139862060547,
    "name": "Sherbrooke Airport"
  },
  {
    "city": "St. John",
    "country": "Canada",
    "iata": "YSJ",
    "id": "135",
    "lat": 45.31610107421875,
    "lng": -65.89029693603516,
    "name": "Saint John Airport"
  },
  {
    "city": "Fort Smith",
    "country": "Canada",
    "iata": "YSM",
    "id": "136",
    "lat": 60.020301818847656,
    "lng": -111.96199798583984,
    "name": "Fort Smith Airport"
  },
  {
    "city": "Nanisivik",
    "country": "Canada",
    "iata": "YSR",
    "id": "137",
    "lat": 72.982201,
    "lng": -84.613602,
    "name": "Nanisivik Airport"
  },
  {
    "city": "Summerside",
    "country": "Canada",
    "iata": "YSU",
    "id": "138",
    "lat": 46.44060134887695,
    "lng": -63.83359909057617,
    "name": "Summerside Airport"
  },
  {
    "city": "Sachs Harbour",
    "country": "Canada",
    "iata": "YSY",
    "id": "139",
    "lat": 71.9938964844,
    "lng": -125.242996216,
    "name": "Sachs Harbour (David Nasogaluak Jr. Saaryuaq) Airport"
  },
  {
    "city": "Cape Dorset",
    "country": "Canada",
    "iata": "YTE",
    "id": "140",
    "lat": 64.2300033569,
    "lng": -76.5267028809,
    "name": "Cape Dorset Airport"
  },
  {
    "city": "Thompson",
    "country": "Canada",
    "iata": "YTH",
    "id": "141",
    "lat": 55.80110168457031,
    "lng": -97.86419677734375,
    "name": "Thompson Airport"
  },
  {
    "city": "Trenton",
    "country": "Canada",
    "iata": "YTR",
    "id": "142",
    "lat": 44.118900299072266,
    "lng": -77.5280990600586,
    "name": "CFB Trenton"
  },
  {
    "city": "Timmins",
    "country": "Canada",
    "iata": "YTS",
    "id": "143",
    "lat": 48.569698333699996,
    "lng": -81.376701355,
    "name": "Timmins/Victor M. Power"
  },
  {
    "city": "Toronto",
    "country": "Canada",
    "iata": "YTZ",
    "id": "144",
    "lat": 43.627499,
    "lng": -79.396202,
    "name": "Billy Bishop Toronto City Centre Airport"
  },
  {
    "city": "Tuktoyaktuk",
    "country": "Canada",
    "iata": "YUB",
    "id": "145",
    "lat": 69.43329620361328,
    "lng": -133.0260009765625,
    "name": "Tuktoyaktuk Airport"
  },
  {
    "city": "Montreal",
    "country": "Canada",
    "iata": "YUL",
    "id": "146",
    "lat": 45.4706001282,
    "lng": -73.7407989502,
    "name": "Montreal / Pierre Elliott Trudeau International Airport"
  },
  {
    "city": "Repulse Bay",
    "country": "Canada",
    "iata": "YUT",
    "id": "147",
    "lat": 66.5214004517,
    "lng": -86.22470092770001,
    "name": "Repulse Bay Airport"
  },
  {
    "city": "Hall Beach",
    "country": "Canada",
    "iata": "YUX",
    "id": "148",
    "lat": 68.77610015869999,
    "lng": -81.2425,
    "name": "Hall Beach Airport"
  },
  {
    "city": "Rouyn",
    "country": "Canada",
    "iata": "YUY",
    "id": "149",
    "lat": 48.20610046386719,
    "lng": -78.83560180664062,
    "name": "Rouyn Noranda Airport"
  },
  {
    "city": "La Ronge",
    "country": "Canada",
    "iata": "YVC",
    "id": "150",
    "lat": 55.151401519800004,
    "lng": -105.262001038,
    "name": "La Ronge Airport"
  },
  {
    "city": "Vermillion",
    "country": "Canada",
    "iata": "YVG",
    "id": "151",
    "lat": 53.355800628699996,
    "lng": -110.823997498,
    "name": "Vermilion Airport"
  },
  {
    "city": "Broughton Island",
    "country": "Canada",
    "iata": "YVM",
    "id": "152",
    "lat": 67.5457992554,
    "lng": -64.03140258789999,
    "name": "Qikiqtarjuaq Airport"
  },
  {
    "city": "Val D'or",
    "country": "Canada",
    "iata": "YVO",
    "id": "153",
    "lat": 48.0532989502,
    "lng": -77.7827987671,
    "name": "Val-d'Or Airport"
  },
  {
    "city": "Quujjuaq",
    "country": "Canada",
    "iata": "YVP",
    "id": "154",
    "lat": 58.096099853515625,
    "lng": -68.4269027709961,
    "name": "Kuujjuaq Airport"
  },
  {
    "city": "Norman Wells",
    "country": "Canada",
    "iata": "YVQ",
    "id": "155",
    "lat": 65.28160095214844,
    "lng": -126.7979965209961,
    "name": "Norman Wells Airport"
  },
  {
    "city": "Vancouver",
    "country": "Canada",
    "iata": "YVR",
    "id": "156",
    "lat": 49.193901062,
    "lng": -123.183998108,
    "name": "Vancouver International Airport"
  },
  {
    "city": "Buffalo Narrows",
    "country": "Canada",
    "iata": "YVT",
    "id": "157",
    "lat": 55.8418998718,
    "lng": -108.417999268,
    "name": "Buffalo Narrows Airport"
  },
  {
    "city": "Wiarton",
    "country": "Canada",
    "iata": "YVV",
    "id": "158",
    "lat": 44.7458,
    "lng": -81.107201,
    "name": "Wiarton Airport"
  },
  {
    "city": "Petawawa",
    "country": "Canada",
    "iata": "YWA",
    "id": "159",
    "lat": 45.95220184326172,
    "lng": -77.31919860839844,
    "name": "Petawawa Airport"
  },
  {
    "city": "Winnipeg",
    "country": "Canada",
    "iata": "YWG",
    "id": "160",
    "lat": 49.909999847399995,
    "lng": -97.2398986816,
    "name": "Winnipeg / James Armstrong Richardson International Airport"
  },
  {
    "city": "Wabush",
    "country": "Canada",
    "iata": "YWK",
    "id": "161",
    "lat": 52.92190170288086,
    "lng": -66.8644027709961,
    "name": "Wabush Airport"
  },
  {
    "city": "Williams Lake",
    "country": "Canada",
    "iata": "YWL",
    "id": "162",
    "lat": 52.1831016541,
    "lng": -122.054000854,
    "name": "Williams Lake Airport"
  },
  {
    "city": "Wrigley",
    "country": "Canada",
    "iata": "YWY",
    "id": "163",
    "lat": 63.20940017700195,
    "lng": -123.43699645996094,
    "name": "Wrigley Airport"
  },
  {
    "city": "Cranbrook",
    "country": "Canada",
    "iata": "YXC",
    "id": "164",
    "lat": 49.610801696777,
    "lng": -115.78199768066,
    "name": "Cranbrook/Canadian Rockies International Airport"
  },
  {
    "city": "Edmonton",
    "country": "Canada",
    "iata": "YXD",
    "id": "165",
    "lat": 53.5724983215,
    "lng": -113.521003723,
    "name": "Edmonton City Centre (Blatchford Field) Airport"
  },
  {
    "city": "Saskatoon",
    "country": "Canada",
    "iata": "YXE",
    "id": "166",
    "lat": 52.170799255371094,
    "lng": -106.69999694824219,
    "name": "Saskatoon John G. Diefenbaker International Airport"
  },
  {
    "city": "Medicine Hat",
    "country": "Canada",
    "iata": "YXH",
    "id": "167",
    "lat": 50.01890182495117,
    "lng": -110.72100067138672,
    "name": "Medicine Hat Airport"
  },
  {
    "city": "Fort Saint John",
    "country": "Canada",
    "iata": "YXJ",
    "id": "168",
    "lat": 56.23809814453125,
    "lng": -120.73999786376953,
    "name": "Fort St John Airport"
  },
  {
    "city": "Sioux Lookout",
    "country": "Canada",
    "iata": "YXL",
    "id": "169",
    "lat": 50.11389923095703,
    "lng": -91.9052963256836,
    "name": "Sioux Lookout Airport"
  },
  {
    "city": "Pangnirtung",
    "country": "Canada",
    "iata": "YXP",
    "id": "170",
    "lat": 66.1449966431,
    "lng": -65.71360015869999,
    "name": "Pangnirtung Airport"
  },
  {
    "city": "Earlton",
    "country": "Canada",
    "iata": "YXR",
    "id": "171",
    "lat": 47.697400654599996,
    "lng": -79.8473453522,
    "name": "Earlton (Timiskaming Regional) Airport"
  },
  {
    "city": "Prince George",
    "country": "Canada",
    "iata": "YXS",
    "id": "172",
    "lat": 53.8894004822,
    "lng": -122.679000854,
    "name": "Prince George Airport"
  },
  {
    "city": "Terrace",
    "country": "Canada",
    "iata": "YXT",
    "id": "173",
    "lat": 54.468498,
    "lng": -128.576009,
    "name": "Northwest Regional Airport Terrace-Kitimat"
  },
  {
    "city": "London",
    "country": "Canada",
    "iata": "YXU",
    "id": "174",
    "lat": 43.035599,
    "lng": -81.1539,
    "name": "London Airport"
  },
  {
    "city": "Abbotsford",
    "country": "Canada",
    "iata": "YXX",
    "id": "175",
    "lat": 49.025299072265625,
    "lng": -122.36100006103516,
    "name": "Abbotsford Airport"
  },
  {
    "city": "Whitehorse",
    "country": "Canada",
    "iata": "YXY",
    "id": "176",
    "lat": 60.7095985413,
    "lng": -135.067001343,
    "name": "Whitehorse / Erik Nielsen International Airport"
  },
  {
    "city": "North Bay",
    "country": "Canada",
    "iata": "YYB",
    "id": "177",
    "lat": 46.363602,
    "lng": -79.422798,
    "name": "North Bay Jack Garland Airport"
  },
  {
    "city": "Calgary",
    "country": "Canada",
    "iata": "YYC",
    "id": "178",
    "lat": 51.113899231,
    "lng": -114.019996643,
    "name": "Calgary International Airport"
  },
  {
    "city": "Smithers",
    "country": "Canada",
    "iata": "YYD",
    "id": "179",
    "lat": 54.82469940185547,
    "lng": -127.18299865722656,
    "name": "Smithers Airport"
  },
  {
    "city": "Fort Nelson",
    "country": "Canada",
    "iata": "YYE",
    "id": "180",
    "lat": 58.8363990784,
    "lng": -122.597000122,
    "name": "Fort Nelson Airport"
  },
  {
    "city": "Penticton",
    "country": "Canada",
    "iata": "YYF",
    "id": "181",
    "lat": 49.46310043334961,
    "lng": -119.60199737548828,
    "name": "Penticton Airport"
  },
  {
    "city": "Charlottetown",
    "country": "Canada",
    "iata": "YYG",
    "id": "182",
    "lat": 46.290000915527344,
    "lng": -63.12110137939453,
    "name": "Charlottetown Airport"
  },
  {
    "city": "Spence Bay",
    "country": "Canada",
    "iata": "YYH",
    "id": "183",
    "lat": 69.5466995239,
    "lng": -93.5766983032,
    "name": "Taloyoak Airport"
  },
  {
    "city": "Victoria",
    "country": "Canada",
    "iata": "YYJ",
    "id": "184",
    "lat": 48.646900177,
    "lng": -123.426002502,
    "name": "Victoria International Airport"
  },
  {
    "city": "Lynn Lake",
    "country": "Canada",
    "iata": "YYL",
    "id": "185",
    "lat": 56.86389923095703,
    "lng": -101.07599639892578,
    "name": "Lynn Lake Airport"
  },
  {
    "city": "Swift Current",
    "country": "Canada",
    "iata": "YYN",
    "id": "186",
    "lat": 50.291900634799994,
    "lng": -107.691001892,
    "name": "Swift Current Airport"
  },
  {
    "city": "Churchill",
    "country": "Canada",
    "iata": "YYQ",
    "id": "187",
    "lat": 58.739200592041016,
    "lng": -94.06500244140625,
    "name": "Churchill Airport"
  },
  {
    "city": "Goose Bay",
    "country": "Canada",
    "iata": "YYR",
    "id": "188",
    "lat": 53.3191986084,
    "lng": -60.4258003235,
    "name": "Goose Bay Airport"
  },
  {
    "city": "St. John's",
    "country": "Canada",
    "iata": "YYT",
    "id": "189",
    "lat": 47.618598938,
    "lng": -52.7518997192,
    "name": "St. John's International Airport"
  },
  {
    "city": "Kapuskasing",
    "country": "Canada",
    "iata": "YYU",
    "id": "190",
    "lat": 49.41389846801758,
    "lng": -82.46749877929688,
    "name": "Kapuskasing Airport"
  },
  {
    "city": "Armstrong",
    "country": "Canada",
    "iata": "YYW",
    "id": "191",
    "lat": 50.29029846191406,
    "lng": -88.90969848632812,
    "name": "Armstrong Airport"
  },
  {
    "city": "Mont Joli",
    "country": "Canada",
    "iata": "YYY",
    "id": "192",
    "lat": 48.60860061645508,
    "lng": -68.20809936523438,
    "name": "Mont Joli Airport"
  },
  {
    "city": "Toronto",
    "country": "Canada",
    "iata": "YYZ",
    "id": "193",
    "lat": 43.6772003174,
    "lng": -79.63059997559999,
    "name": "Lester B. Pearson International Airport"
  },
  {
    "city": "Toronto",
    "country": "Canada",
    "iata": "YZD",
    "id": "194",
    "lat": 43.74250030517578,
    "lng": -79.4655990600586,
    "name": "Downsview Airport"
  },
  {
    "city": "Gore Bay",
    "country": "Canada",
    "iata": "YZE",
    "id": "195",
    "lat": 45.88529968261719,
    "lng": -82.56780242919922,
    "name": "Gore Bay Manitoulin Airport"
  },
  {
    "city": "Yellowknife",
    "country": "Canada",
    "iata": "YZF",
    "id": "196",
    "lat": 62.462799072265625,
    "lng": -114.44000244140625,
    "name": "Yellowknife Airport"
  },
  {
    "city": "Slave Lake",
    "country": "Canada",
    "iata": "YZH",
    "id": "197",
    "lat": 55.2930984497,
    "lng": -114.777000427,
    "name": "Slave Lake Airport"
  },
  {
    "city": "Sandspit",
    "country": "Canada",
    "iata": "YZP",
    "id": "198",
    "lat": 53.25429916379999,
    "lng": -131.813995361,
    "name": "Sandspit Airport"
  },
  {
    "city": "Sarnia",
    "country": "Canada",
    "iata": "YZR",
    "id": "199",
    "lat": 42.9994010925293,
    "lng": -82.30889892578125,
    "name": "Chris Hadfield Airport"
  },
  {
    "city": "Port Hardy",
    "country": "Canada",
    "iata": "YZT",
    "id": "200",
    "lat": 50.680599212646484,
    "lng": -127.36699676513672,
    "name": "Port Hardy Airport"
  },
  {
    "city": "Whitecourt",
    "country": "Canada",
    "iata": "YZU",
    "id": "201",
    "lat": 54.14390182495117,
    "lng": -115.78700256347656,
    "name": "Whitecourt Airport"
  },
  {
    "city": "Sept-iles",
    "country": "Canada",
    "iata": "YZV",
    "id": "202",
    "lat": 50.22330093383789,
    "lng": -66.2656021118164,
    "name": "Sept-Îles Airport"
  },
  {
    "city": "Teslin",
    "country": "Canada",
    "iata": "YZW",
    "id": "203",
    "lat": 60.17279815673828,
    "lng": -132.7429962158203,
    "name": "Teslin Airport"
  },
  {
    "city": "Greenwood",
    "country": "Canada",
    "iata": "YZX",
    "id": "204",
    "lat": 44.98440170288086,
    "lng": -64.91690063476562,
    "name": "CFB Greenwood"
  },
  {
    "city": "Faro",
    "country": "Canada",
    "iata": "ZFA",
    "id": "205",
    "lat": 62.20750045776367,
    "lng": -133.37600708007812,
    "name": "Faro Airport"
  },
  {
    "city": "Fort Mcpherson",
    "country": "Canada",
    "iata": "ZFM",
    "id": "206",
    "lat": 67.40750122070312,
    "lng": -134.86099243164062,
    "name": "Fort Mcpherson Airport"
  },
  {
    "city": "Blida",
    "country": "Algeria",
    "iata": "QLD",
    "id": "207",
    "lat": 36.50360107421875,
    "lng": 2.8141698837280273,
    "name": "Blida Airport"
  },
  {
    "city": "Bou Saada",
    "country": "Algeria",
    "iata": "BUJ",
    "id": "208",
    "lat": 35.33250045776367,
    "lng": 4.206389904022217,
    "name": "Bou Saada Airport"
  },
  {
    "city": "Bejaja",
    "country": "Algeria",
    "iata": "BJA",
    "id": "209",
    "lat": 36.7120018005,
    "lng": 5.0699200630200005,
    "name": "Soummam Airport"
  },
  {
    "city": "Algier",
    "country": "Algeria",
    "iata": "ALG",
    "id": "210",
    "lat": 36.691001892089844,
    "lng": 3.215409994125366,
    "name": "Houari Boumediene Airport"
  },
  {
    "city": "Djanet",
    "country": "Algeria",
    "iata": "DJG",
    "id": "211",
    "lat": 24.292801,
    "lng": 9.45244,
    "name": "Djanet Inedbirene Airport"
  },
  {
    "city": "Boufarik",
    "country": "Algeria",
    "iata": "\\N",
    "id": "212",
    "lat": 36.545799,
    "lng": 2.87611,
    "name": "Boufarik Airport"
  },
  {
    "city": "Reggan",
    "country": "Algeria",
    "iata": "\\N",
    "id": "213",
    "lat": 26.7101,
    "lng": 0.285647,
    "name": "Reggane Airport"
  },
  {
    "city": "Illizi",
    "country": "Algeria",
    "iata": "VVZ",
    "id": "214",
    "lat": 26.7234992981,
    "lng": 8.62265014648,
    "name": "Illizi Takhamalt Airport"
  },
  {
    "city": "Ain Oussera",
    "country": "Algeria",
    "iata": "\\N",
    "id": "215",
    "lat": 35.52539825439453,
    "lng": 2.8787100315093994,
    "name": "Ain Oussera Airport"
  },
  {
    "city": "Tamanrasset",
    "country": "Algeria",
    "iata": "TMR",
    "id": "216",
    "lat": 22.8115005493,
    "lng": 5.45107984543,
    "name": "Aguenar – Hadj Bey Akhamok Airport"
  },
  {
    "city": "Jijel",
    "country": "Algeria",
    "iata": "GJL",
    "id": "217",
    "lat": 36.7951011658,
    "lng": 5.87361001968,
    "name": "Jijel Ferhat Abbas Airport"
  },
  {
    "city": "Mecheria",
    "country": "Algeria",
    "iata": "MZW",
    "id": "218",
    "lat": 33.535900116,
    "lng": -0.242353007197,
    "name": "Mecheria Airport"
  },
  {
    "city": "Relizane",
    "country": "Algeria",
    "iata": "\\N",
    "id": "219",
    "lat": 35.752201,
    "lng": 0.626272,
    "name": "Relizane Airport"
  },
  {
    "city": "Annaba",
    "country": "Algeria",
    "iata": "AAE",
    "id": "220",
    "lat": 36.822201,
    "lng": 7.809174,
    "name": "Rabah Bitat Airport"
  },
  {
    "city": "Constantine",
    "country": "Algeria",
    "iata": "CZL",
    "id": "221",
    "lat": 36.2760009765625,
    "lng": 6.620389938354492,
    "name": "Mohamed Boudiaf International Airport"
  },
  {
    "city": "Tebessa",
    "country": "Algeria",
    "iata": "TEE",
    "id": "222",
    "lat": 35.4315986633,
    "lng": 8.12071990967,
    "name": "Cheikh Larbi Tébessi Airport"
  },
  {
    "city": "Tilrempt",
    "country": "Algeria",
    "iata": "HRM",
    "id": "224",
    "lat": 32.93040084838867,
    "lng": 3.311539888381958,
    "name": "Hassi R'Mel Airport"
  },
  {
    "city": "Tiaret",
    "country": "Algeria",
    "iata": "TID",
    "id": "225",
    "lat": 35.3410987854,
    "lng": 1.46315002441,
    "name": "Bou Chekif Airport"
  },
  {
    "city": "Bou Sfer",
    "country": "Algeria",
    "iata": "\\N",
    "id": "226",
    "lat": 35.73540115356445,
    "lng": -0.8053889870643616,
    "name": "Bou Sfer Airport"
  },
  {
    "city": "Tindouf",
    "country": "Algeria",
    "iata": "TIN",
    "id": "227",
    "lat": 27.7003993988,
    "lng": -8.167099952700001,
    "name": "Tindouf Airport"
  },
  {
    "city": "Ech-cheliff",
    "country": "Algeria",
    "iata": "CFK",
    "id": "228",
    "lat": 36.2126998901,
    "lng": 1.33176994324,
    "name": "Ech Cheliff Airport"
  },
  {
    "city": "Oran",
    "country": "Algeria",
    "iata": "TAF",
    "id": "229",
    "lat": 35.54240036010742,
    "lng": -0.5322780013084412,
    "name": "Tafaraoui Airport"
  },
  {
    "city": "Tlemcen",
    "country": "Algeria",
    "iata": "TLM",
    "id": "230",
    "lat": 35.0167007446,
    "lng": -1.45000004768,
    "name": "Zenata – Messali El Hadj Airport"
  },
  {
    "city": "Oran",
    "country": "Algeria",
    "iata": "ORN",
    "id": "231",
    "lat": 35.6239013672,
    "lng": -0.6211829781529999,
    "name": "Es Senia Airport"
  },
  {
    "city": "Sidi Bel Abbes",
    "country": "Algeria",
    "iata": "BFW",
    "id": "232",
    "lat": 35.1717987061,
    "lng": -0.593275010586,
    "name": "Sidi Bel Abbes Airport"
  },
  {
    "city": "Ghriss",
    "country": "Algeria",
    "iata": "MUW",
    "id": "233",
    "lat": 35.207698822021484,
    "lng": 0.14714199304580688,
    "name": "Ghriss Airport"
  },
  {
    "city": "Adrar",
    "country": "Algeria",
    "iata": "AZR",
    "id": "234",
    "lat": 27.837600708007812,
    "lng": -0.18641400337219238,
    "name": "Touat Cheikh Sidi Mohamed Belkebir Airport"
  },
  {
    "city": "Biskra",
    "country": "Algeria",
    "iata": "BSK",
    "id": "235",
    "lat": 34.793300628699996,
    "lng": 5.73823022842,
    "name": "Biskra Airport"
  },
  {
    "city": "El Golea",
    "country": "Algeria",
    "iata": "ELG",
    "id": "236",
    "lat": 30.571300506591797,
    "lng": 2.8595900535583496,
    "name": "El Golea Airport"
  },
  {
    "city": "Ghardaia",
    "country": "Algeria",
    "iata": "GHA",
    "id": "237",
    "lat": 32.38410186767578,
    "lng": 3.794110059738159,
    "name": "Noumérat - Moufdi Zakaria Airport"
  },
  {
    "city": "Hassi Messaoud",
    "country": "Algeria",
    "iata": "HME",
    "id": "238",
    "lat": 31.673000335699996,
    "lng": 6.140439987180001,
    "name": "Oued Irara Airport"
  },
  {
    "city": "In Salah",
    "country": "Algeria",
    "iata": "INZ",
    "id": "239",
    "lat": 27.250999450699997,
    "lng": 2.51202011108,
    "name": "In Salah Airport"
  },
  {
    "city": "Touggourt",
    "country": "Algeria",
    "iata": "TGR",
    "id": "240",
    "lat": 33.06779861450195,
    "lng": 6.088669776916504,
    "name": "Touggourt Sidi Madhi Airport"
  },
  {
    "city": "Laghouat",
    "country": "Algeria",
    "iata": "LOO",
    "id": "241",
    "lat": 33.764400482199996,
    "lng": 2.92833995819,
    "name": "Laghouat Airport"
  },
  {
    "city": "Timimoun",
    "country": "Algeria",
    "iata": "TMX",
    "id": "242",
    "lat": 29.2371006012,
    "lng": 0.276033014059,
    "name": "Timimoun Airport"
  },
  {
    "city": "Ouargla",
    "country": "Algeria",
    "iata": "OGX",
    "id": "243",
    "lat": 31.917200088500977,
    "lng": 5.412779808044434,
    "name": "Ain el Beida Airport"
  },
  {
    "city": "Zarzaitine",
    "country": "Algeria",
    "iata": "IAM",
    "id": "244",
    "lat": 28.0515,
    "lng": 9.64291,
    "name": "In Aménas Airport"
  },
  {
    "city": "Cotonou",
    "country": "Benin",
    "iata": "COO",
    "id": "245",
    "lat": 6.357230186462402,
    "lng": 2.384350061416626,
    "name": "Cadjehoun Airport"
  },
  {
    "city": "Ouagadougou",
    "country": "Burkina Faso",
    "iata": "OUA",
    "id": "246",
    "lat": 12.3532,
    "lng": -1.51242,
    "name": "Ouagadougou Airport"
  },
  {
    "city": "Bobo-dioulasso",
    "country": "Burkina Faso",
    "iata": "BOY",
    "id": "247",
    "lat": 11.160099983215332,
    "lng": -4.33096981048584,
    "name": "Bobo Dioulasso Airport"
  },
  {
    "city": "Accra",
    "country": "Ghana",
    "iata": "ACC",
    "id": "248",
    "lat": 5.605189800262451,
    "lng": -0.16678600013256073,
    "name": "Kotoka International Airport"
  },
  {
    "city": "Tamale",
    "country": "Ghana",
    "iata": "TML",
    "id": "249",
    "lat": 9.55718994140625,
    "lng": -0.8632140159606934,
    "name": "Tamale Airport"
  },
  {
    "city": "Wa",
    "country": "Ghana",
    "iata": "\\N",
    "id": "250",
    "lat": 10.0826997756958,
    "lng": -2.507689952850342,
    "name": "Wa Airport"
  },
  {
    "city": "Sunyani",
    "country": "Ghana",
    "iata": "NYI",
    "id": "251",
    "lat": 7.361830234527588,
    "lng": -2.3287599086761475,
    "name": "Sunyani Airport"
  },
  {
    "city": "Takoradi",
    "country": "Ghana",
    "iata": "TKD",
    "id": "252",
    "lat": 4.896059989929199,
    "lng": -1.7747600078582764,
    "name": "Takoradi Airport"
  },
  {
    "city": "Abidjan",
    "country": "Cote d'Ivoire",
    "iata": "ABJ",
    "id": "253",
    "lat": 5.261390209197998,
    "lng": -3.9262900352478027,
    "name": "Port Bouet Airport"
  },
  {
    "city": "Bouake",
    "country": "Cote d'Ivoire",
    "iata": "BYK",
    "id": "254",
    "lat": 7.738800048828125,
    "lng": -5.073669910430908,
    "name": "Bouaké Airport"
  },
  {
    "city": "Daloa",
    "country": "Cote d'Ivoire",
    "iata": "DJO",
    "id": "255",
    "lat": 6.792809963226318,
    "lng": -6.473189830780029,
    "name": "Daloa Airport"
  },
  {
    "city": "Korhogo",
    "country": "Cote d'Ivoire",
    "iata": "HGO",
    "id": "256",
    "lat": 9.38718032837,
    "lng": -5.55666017532,
    "name": "Korhogo Airport"
  },
  {
    "city": "Man",
    "country": "Cote d'Ivoire",
    "iata": "MJC",
    "id": "257",
    "lat": 7.272069931030273,
    "lng": -7.58735990524292,
    "name": "Man Airport"
  },
  {
    "city": "San Pedro",
    "country": "Cote d'Ivoire",
    "iata": "SPY",
    "id": "258",
    "lat": 4.746719837188721,
    "lng": -6.660820007324219,
    "name": "San Pedro Airport"
  },
  {
    "city": "Yamoussoukro",
    "country": "Cote d'Ivoire",
    "iata": "ASK",
    "id": "259",
    "lat": 6.9031701088,
    "lng": -5.36558008194,
    "name": "Yamoussoukro Airport"
  },
  {
    "city": "Abuja",
    "country": "Nigeria",
    "iata": "ABV",
    "id": "260",
    "lat": 9.006790161132812,
    "lng": 7.263169765472412,
    "name": "Nnamdi Azikiwe International Airport"
  },
  {
    "city": "Akure",
    "country": "Nigeria",
    "iata": "AKR",
    "id": "261",
    "lat": 7.246739864349365,
    "lng": 5.3010101318359375,
    "name": "Akure Airport"
  },
  {
    "city": "Benin",
    "country": "Nigeria",
    "iata": "BNI",
    "id": "262",
    "lat": 6.316979885101318,
    "lng": 5.5995001792907715,
    "name": "Benin Airport"
  },
  {
    "city": "Calabar",
    "country": "Nigeria",
    "iata": "CBQ",
    "id": "263",
    "lat": 4.976019859313965,
    "lng": 8.347200393676758,
    "name": "Margaret Ekpo International Airport"
  },
  {
    "city": "Enugu",
    "country": "Nigeria",
    "iata": "ENU",
    "id": "264",
    "lat": 6.474269866943359,
    "lng": 7.561960220336914,
    "name": "Akanu Ibiam International Airport"
  },
  {
    "city": "Gusau",
    "country": "Nigeria",
    "iata": "\\N",
    "id": "265",
    "lat": 12.1717,
    "lng": 6.69611,
    "name": "Gusau Airport"
  },
  {
    "city": "Ibadan",
    "country": "Nigeria",
    "iata": "IBA",
    "id": "266",
    "lat": 7.362460136413574,
    "lng": 3.97832989692688,
    "name": "Ibadan Airport"
  },
  {
    "city": "Ilorin",
    "country": "Nigeria",
    "iata": "ILR",
    "id": "267",
    "lat": 8.440210342407227,
    "lng": 4.493919849395752,
    "name": "Ilorin International Airport"
  },
  {
    "city": "Jos",
    "country": "Nigeria",
    "iata": "JOS",
    "id": "268",
    "lat": 9.639829635620117,
    "lng": 8.869050025939941,
    "name": "Yakubu Gowon Airport"
  },
  {
    "city": "Kaduna",
    "country": "Nigeria",
    "iata": "KAD",
    "id": "269",
    "lat": 10.696000099182129,
    "lng": 7.320109844207764,
    "name": "Kaduna Airport"
  },
  {
    "city": "Kano",
    "country": "Nigeria",
    "iata": "KAN",
    "id": "270",
    "lat": 12.0476,
    "lng": 8.52462,
    "name": "Mallam Aminu International Airport"
  },
  {
    "city": "Maiduguri",
    "country": "Nigeria",
    "iata": "MIU",
    "id": "271",
    "lat": 11.855299949645996,
    "lng": 13.080900192260742,
    "name": "Maiduguri International Airport"
  },
  {
    "city": "Makurdi",
    "country": "Nigeria",
    "iata": "MDI",
    "id": "272",
    "lat": 7.70388,
    "lng": 8.61394,
    "name": "Makurdi Airport"
  },
  {
    "city": "Lagos",
    "country": "Nigeria",
    "iata": "LOS",
    "id": "273",
    "lat": 6.5773701667785645,
    "lng": 3.321160078048706,
    "name": "Murtala Muhammed International Airport"
  },
  {
    "city": "Minna",
    "country": "Nigeria",
    "iata": "MXJ",
    "id": "274",
    "lat": 9.652170181274414,
    "lng": 6.462259769439697,
    "name": "Minna Airport"
  },
  {
    "city": "Port Hartcourt",
    "country": "Nigeria",
    "iata": "PHC",
    "id": "275",
    "lat": 5.0154900550842285,
    "lng": 6.94959020614624,
    "name": "Port Harcourt International Airport"
  },
  {
    "city": "Sokoto",
    "country": "Nigeria",
    "iata": "SKO",
    "id": "276",
    "lat": 12.916299819946289,
    "lng": 5.207190036773682,
    "name": "Sadiq Abubakar III International Airport"
  },
  {
    "city": "Yola",
    "country": "Nigeria",
    "iata": "YOL",
    "id": "277",
    "lat": 9.257550239562988,
    "lng": 12.430399894714355,
    "name": "Yola Airport"
  },
  {
    "city": "Zaria",
    "country": "Nigeria",
    "iata": "ZAR",
    "id": "278",
    "lat": 11.1302,
    "lng": 7.68581,
    "name": "Zaria Airport"
  },
  {
    "city": "Maradi",
    "country": "Niger",
    "iata": "MFQ",
    "id": "279",
    "lat": 13.5024995803833,
    "lng": 7.1267499923706055,
    "name": "Maradi Airport"
  },
  {
    "city": "Niamey",
    "country": "Niger",
    "iata": "NIM",
    "id": "280",
    "lat": 13.4815,
    "lng": 2.18361,
    "name": "Diori Hamani International Airport"
  },
  {
    "city": "Tahoua",
    "country": "Niger",
    "iata": "THZ",
    "id": "281",
    "lat": 14.875699996948242,
    "lng": 5.265359878540039,
    "name": "Tahoua Airport"
  },
  {
    "city": "Agadez",
    "country": "Niger",
    "iata": "AJY",
    "id": "282",
    "lat": 16.965999603271484,
    "lng": 8.000109672546387,
    "name": "Mano Dayak International Airport"
  },
  {
    "city": "Dirkou",
    "country": "Niger",
    "iata": "\\N",
    "id": "283",
    "lat": 18.968700408935547,
    "lng": 12.86870002746582,
    "name": "Dirkou Airport"
  },
  {
    "city": "Diffa",
    "country": "Niger",
    "iata": "\\N",
    "id": "284",
    "lat": 13.372900009155273,
    "lng": 12.626700401306152,
    "name": "Diffa Airport"
  },
  {
    "city": "Zinder",
    "country": "Niger",
    "iata": "ZND",
    "id": "285",
    "lat": 13.779000282287598,
    "lng": 8.983759880065918,
    "name": "Zinder Airport"
  },
  {
    "city": "Monastir",
    "country": "Tunisia",
    "iata": "MIR",
    "id": "286",
    "lat": 35.75809860229492,
    "lng": 10.75469970703125,
    "name": "Monastir Habib Bourguiba International Airport"
  },
  {
    "city": "Tunis",
    "country": "Tunisia",
    "iata": "TUN",
    "id": "287",
    "lat": 36.85100173950195,
    "lng": 10.22719955444336,
    "name": "Tunis Carthage International Airport"
  },
  {
    "city": "Bizerte",
    "country": "Tunisia",
    "iata": "\\N",
    "id": "288",
    "lat": 37.245398,
    "lng": 9.79145,
    "name": "Sidi Ahmed Air Base"
  },
  {
    "city": "Remada",
    "country": "Tunisia",
    "iata": "\\N",
    "id": "289",
    "lat": 32.30619812011719,
    "lng": 10.382100105285645,
    "name": "Remada Air Base"
  },
  {
    "city": "Gafsa",
    "country": "Tunisia",
    "iata": "GAF",
    "id": "290",
    "lat": 34.422000885009766,
    "lng": 8.822500228881836,
    "name": "Gafsa Ksar International Airport"
  },
  {
    "city": "Gabes",
    "country": "Tunisia",
    "iata": "GAE",
    "id": "291",
    "lat": 33.87689971923828,
    "lng": 10.103300094604492,
    "name": "Gabès Matmata International Airport"
  },
  {
    "city": "Bordj El Amri",
    "country": "Tunisia",
    "iata": "\\N",
    "id": "292",
    "lat": 36.72129821777344,
    "lng": 9.94314956665039,
    "name": "Borj El Amri Airport"
  },
  {
    "city": "Djerba",
    "country": "Tunisia",
    "iata": "DJE",
    "id": "293",
    "lat": 33.875,
    "lng": 10.775500297546387,
    "name": "Djerba Zarzis International Airport"
  },
  {
    "city": "El Borma",
    "country": "Tunisia",
    "iata": "EBM",
    "id": "294",
    "lat": 31.704299926757812,
    "lng": 9.254619598388672,
    "name": "El Borma Airport"
  },
  {
    "city": "Sfax",
    "country": "Tunisia",
    "iata": "SFA",
    "id": "295",
    "lat": 34.71799850463867,
    "lng": 10.690999984741211,
    "name": "Sfax Thyna International Airport"
  },
  {
    "city": "Tozeur",
    "country": "Tunisia",
    "iata": "TOE",
    "id": "296",
    "lat": 33.939701080322266,
    "lng": 8.110560417175293,
    "name": "Tozeur Nefta International Airport"
  },
  {
    "city": "Niatougou",
    "country": "Togo",
    "iata": "LRL",
    "id": "297",
    "lat": 9.767330169677734,
    "lng": 1.091249942779541,
    "name": "Niamtougou International Airport"
  },
  {
    "city": "Lome",
    "country": "Togo",
    "iata": "LFW",
    "id": "298",
    "lat": 6.165609836578369,
    "lng": 1.2545100450515747,
    "name": "Lomé-Tokoin Airport"
  },
  {
    "city": "Antwerp",
    "country": "Belgium",
    "iata": "ANR",
    "id": "299",
    "lat": 51.1893997192,
    "lng": 4.46027994156,
    "name": "Antwerp International Airport (Deurne)"
  },
  {
    "city": "Beauvechain",
    "country": "Belgium",
    "iata": "\\N",
    "id": "300",
    "lat": 50.75859832763672,
    "lng": 4.768330097198486,
    "name": "Beauvechain Air Base"
  },
  {
    "city": "Kleine Brogel",
    "country": "Belgium",
    "iata": "\\N",
    "id": "301",
    "lat": 51.168301,
    "lng": 5.47,
    "name": "Kleine Brogel Air Base"
  },
  {
    "city": "Brussels",
    "country": "Belgium",
    "iata": "BRU",
    "id": "302",
    "lat": 50.901401519800004,
    "lng": 4.48443984985,
    "name": "Brussels Airport"
  },
  {
    "city": "Bertrix",
    "country": "Belgium",
    "iata": "\\N",
    "id": "303",
    "lat": 49.891700744628906,
    "lng": 5.2238898277282715,
    "name": "Jehonville Air Base"
  },
  {
    "city": "Charleroi",
    "country": "Belgium",
    "iata": "CRL",
    "id": "304",
    "lat": 50.459202,
    "lng": 4.45382,
    "name": "Brussels South Charleroi Airport"
  },
  {
    "city": "Chievres",
    "country": "Belgium",
    "iata": "\\N",
    "id": "305",
    "lat": 50.575801849365234,
    "lng": 3.8310000896453857,
    "name": "Chièvres Air Base"
  },
  {
    "city": "Koksijde",
    "country": "Belgium",
    "iata": "\\N",
    "id": "306",
    "lat": 51.090301513671875,
    "lng": 2.652780055999756,
    "name": "Koksijde Air Base"
  },
  {
    "city": "Florennes",
    "country": "Belgium",
    "iata": "\\N",
    "id": "307",
    "lat": 50.2433013916,
    "lng": 4.64583015442,
    "name": "Florennes Air Base"
  },
  {
    "city": "Kortrijk-vevelgem",
    "country": "Belgium",
    "iata": "KJK",
    "id": "308",
    "lat": 50.817199707,
    "lng": 3.20472002029,
    "name": "Wevelgem Airport"
  },
  {
    "city": "Liege",
    "country": "Belgium",
    "iata": "LGG",
    "id": "309",
    "lat": 50.63740158081055,
    "lng": 5.443220138549805,
    "name": "Liège Airport"
  },
  {
    "city": "Ostend",
    "country": "Belgium",
    "iata": "OST",
    "id": "310",
    "lat": 51.198898315399994,
    "lng": 2.8622200489,
    "name": "Ostend-Bruges International Airport"
  },
  {
    "city": "Zutendaal",
    "country": "Belgium",
    "iata": "\\N",
    "id": "311",
    "lat": 50.9474983215332,
    "lng": 5.590559959411621,
    "name": "Zutendaal Air Base"
  },
  {
    "city": "Sint-truiden",
    "country": "Belgium",
    "iata": "\\N",
    "id": "312",
    "lat": 50.791901,
    "lng": 5.20167,
    "name": "Brustem Airfield Sint Truiden"
  },
  {
    "city": "St.-hubert",
    "country": "Belgium",
    "iata": "\\N",
    "id": "313",
    "lat": 50.034400939941406,
    "lng": 5.440810203552246,
    "name": "Saint Hubert Air Base"
  },
  {
    "city": "Ursel",
    "country": "Belgium",
    "iata": "\\N",
    "id": "314",
    "lat": 51.14419937133789,
    "lng": 3.475559949874878,
    "name": "Ursel Air Base"
  },
  {
    "city": "Weelde",
    "country": "Belgium",
    "iata": "\\N",
    "id": "315",
    "lat": 51.394798278808594,
    "lng": 4.9601898193359375,
    "name": "Weelde Air Base"
  },
  {
    "city": "Zoersel",
    "country": "Belgium",
    "iata": "OBL",
    "id": "316",
    "lat": 51.264702,
    "lng": 4.75333,
    "name": "Zoersel (Oostmalle) Airfield"
  },
  {
    "city": "Bautzen",
    "country": "Germany",
    "iata": "\\N",
    "id": "317",
    "lat": 51.193611,
    "lng": 14.519722,
    "name": "Flugplatz Bautzen"
  },
  {
    "city": "Altenburg",
    "country": "Germany",
    "iata": "AOC",
    "id": "318",
    "lat": 50.981945,
    "lng": 12.506389,
    "name": "Altenburg-Nobitz Airport"
  },
  {
    "city": "Dessau",
    "country": "Germany",
    "iata": "\\N",
    "id": "319",
    "lat": 51.831694,
    "lng": 12.190962,
    "name": "Dessau Airfield"
  },
  {
    "city": "Eisenhuettenstadt",
    "country": "Germany",
    "iata": "\\N",
    "id": "320",
    "lat": 52.195856,
    "lng": 14.58753,
    "name": "Eisenhüttenstadt Airfield"
  },
  {
    "city": "Suhl",
    "country": "Germany",
    "iata": "\\N",
    "id": "322",
    "lat": 51.30805587768555,
    "lng": 13.555556297302246,
    "name": "Großenhain Airport"
  },
  {
    "city": "Muehlhausen",
    "country": "Germany",
    "iata": "\\N",
    "id": "323",
    "lat": 51.3630556,
    "lng": 11.9408333,
    "name": "Merseburg Airport"
  },
  {
    "city": "Halle",
    "country": "Germany",
    "iata": "\\N",
    "id": "324",
    "lat": 51.552223,
    "lng": 12.053889,
    "name": "Halle-Oppin Airport"
  },
  {
    "city": "Riesa",
    "country": "Germany",
    "iata": "IES",
    "id": "325",
    "lat": 51.2936096191,
    "lng": 13.3561105728,
    "name": "Riesa-Göhlis Airport"
  },
  {
    "city": "Rechlin-laerz",
    "country": "Germany",
    "iata": "REB",
    "id": "326",
    "lat": 53.306388855,
    "lng": 12.7522220612,
    "name": "Rechlin-Lärz Airport"
  },
  {
    "city": "Strausberg",
    "country": "Germany",
    "iata": "\\N",
    "id": "327",
    "lat": 52.5805549621582,
    "lng": 13.916666984558105,
    "name": "Strausberg Airport"
  },
  {
    "city": "Schoenhagen",
    "country": "Germany",
    "iata": "QXH",
    "id": "328",
    "lat": 52.203609,
    "lng": 13.156389,
    "name": "Schönhagen Airport"
  },
  {
    "city": "Barth",
    "country": "Germany",
    "iata": "BBH",
    "id": "329",
    "lat": 54.338253,
    "lng": 12.710515,
    "name": "Barth Airport"
  },
  {
    "city": "Jena",
    "country": "Germany",
    "iata": "\\N",
    "id": "330",
    "lat": 50.915279,
    "lng": 11.714444,
    "name": "Jena-Schöngleina Airfield"
  },
  {
    "city": "Kyritz",
    "country": "Germany",
    "iata": "\\N",
    "id": "331",
    "lat": 52.918888092041016,
    "lng": 12.425277709960938,
    "name": "Kyritz Airport"
  },
  {
    "city": "Magdeburg",
    "country": "Germany",
    "iata": "ZMG",
    "id": "332",
    "lat": 52.073612,
    "lng": 11.626389,
    "name": "Magdeburg \"City\" Airport"
  },
  {
    "city": "Rothenburg/ol",
    "country": "Germany",
    "iata": "\\N",
    "id": "333",
    "lat": 51.36333465576172,
    "lng": 14.949999809265137,
    "name": "Rothenburg/Görlitz Airport"
  },
  {
    "city": "Anklam",
    "country": "Germany",
    "iata": "\\N",
    "id": "334",
    "lat": 53.832779,
    "lng": 13.668611,
    "name": "Anklam Airfield"
  },
  {
    "city": "Cottbus",
    "country": "Germany",
    "iata": "CBU",
    "id": "335",
    "lat": 51.889442,
    "lng": 14.531944,
    "name": "Cottbus-Drewitz Airport"
  },
  {
    "city": "Kamenz",
    "country": "Germany",
    "iata": "\\N",
    "id": "336",
    "lat": 51.29694366455078,
    "lng": 14.1274995803833,
    "name": "Kamenz Airport"
  },
  {
    "city": "Berlin",
    "country": "Germany",
    "iata": "SXF",
    "id": "337",
    "lat": 52.380001,
    "lng": 13.5225,
    "name": "Berlin-Schönefeld Airport"
  },
  {
    "city": "Dresden",
    "country": "Germany",
    "iata": "DRS",
    "id": "338",
    "lat": 51.1328010559082,
    "lng": 13.767200469970703,
    "name": "Dresden Airport"
  },
  {
    "city": "Erfurt",
    "country": "Germany",
    "iata": "ERF",
    "id": "339",
    "lat": 50.979801177978516,
    "lng": 10.958100318908691,
    "name": "Erfurt Airport"
  },
  {
    "city": "Frankfurt",
    "country": "Germany",
    "iata": "FRA",
    "id": "340",
    "lat": 50.033333,
    "lng": 8.570556,
    "name": "Frankfurt am Main Airport"
  },
  {
    "city": "Munster",
    "country": "Germany",
    "iata": "FMO",
    "id": "341",
    "lat": 52.134601593,
    "lng": 7.68483018875,
    "name": "Münster Osnabrück Airport"
  },
  {
    "city": "Hamburg",
    "country": "Germany",
    "iata": "HAM",
    "id": "342",
    "lat": 53.630401611328,
    "lng": 9.9882297515869,
    "name": "Hamburg Airport"
  },
  {
    "city": "Berlin",
    "country": "Germany",
    "iata": "THF",
    "id": "343",
    "lat": 52.472999572753906,
    "lng": 13.403900146484375,
    "name": "Berlin-Tempelhof International Airport"
  },
  {
    "city": "Cologne",
    "country": "Germany",
    "iata": "CGN",
    "id": "344",
    "lat": 50.8658981323,
    "lng": 7.1427397728,
    "name": "Cologne Bonn Airport"
  },
  {
    "city": "Duesseldorf",
    "country": "Germany",
    "iata": "DUS",
    "id": "345",
    "lat": 51.289501,
    "lng": 6.76678,
    "name": "Düsseldorf Airport"
  },
  {
    "city": "Munich",
    "country": "Germany",
    "iata": "MUC",
    "id": "346",
    "lat": 48.353802,
    "lng": 11.7861,
    "name": "Munich Airport"
  },
  {
    "city": "Nuernberg",
    "country": "Germany",
    "iata": "NUE",
    "id": "347",
    "lat": 49.498699,
    "lng": 11.078056,
    "name": "Nuremberg Airport"
  },
  {
    "city": "Leipzig",
    "country": "Germany",
    "iata": "LEJ",
    "id": "348",
    "lat": 51.423889,
    "lng": 12.236389,
    "name": "Leipzig/Halle Airport"
  },
  {
    "city": "Saarbruecken",
    "country": "Germany",
    "iata": "SCN",
    "id": "349",
    "lat": 49.214599609400004,
    "lng": 7.10950994492,
    "name": "Saarbrücken Airport"
  },
  {
    "city": "Stuttgart",
    "country": "Germany",
    "iata": "STR",
    "id": "350",
    "lat": 48.689899444599995,
    "lng": 9.22196006775,
    "name": "Stuttgart Airport"
  },
  {
    "city": "Berlin",
    "country": "Germany",
    "iata": "TXL",
    "id": "351",
    "lat": 52.5597,
    "lng": 13.2877,
    "name": "Berlin-Tegel Airport"
  },
  {
    "city": "Hannover",
    "country": "Germany",
    "iata": "HAJ",
    "id": "352",
    "lat": 52.461101532,
    "lng": 9.685079574580001,
    "name": "Hannover Airport"
  },
  {
    "city": "Bremen",
    "country": "Germany",
    "iata": "BRE",
    "id": "353",
    "lat": 53.0475006104,
    "lng": 8.78666973114,
    "name": "Bremen Airport"
  },
  {
    "city": "Egelsbach",
    "country": "Germany",
    "iata": "QEF",
    "id": "354",
    "lat": 49.959999,
    "lng": 8.645833,
    "name": "Frankfurt-Egelsbach Airport"
  },
  {
    "city": "Hahn",
    "country": "Germany",
    "iata": "HHN",
    "id": "355",
    "lat": 49.9487,
    "lng": 7.26389,
    "name": "Frankfurt-Hahn Airport"
  },
  {
    "city": "Mannheim",
    "country": "Germany",
    "iata": "MHG",
    "id": "356",
    "lat": 49.473057,
    "lng": 8.514167,
    "name": "Mannheim-City Airport"
  },
  {
    "city": "Allendorf",
    "country": "Germany",
    "iata": "\\N",
    "id": "357",
    "lat": 51.03499984741211,
    "lng": 8.680832862854004,
    "name": "Allendorf/Eder Airport"
  },
  {
    "city": "Worms",
    "country": "Germany",
    "iata": "\\N",
    "id": "358",
    "lat": 49.606945,
    "lng": 8.368333,
    "name": "Worms Airport"
  },
  {
    "city": "Mainz",
    "country": "Germany",
    "iata": "\\N",
    "id": "359",
    "lat": 49.967499,
    "lng": 8.147222,
    "name": "Mainz-Finthen Airport"
  },
  {
    "city": "Eisenach",
    "country": "Germany",
    "iata": "EIB",
    "id": "360",
    "lat": 50.991604,
    "lng": 10.47973,
    "name": "Eisenach-Kindel Airport"
  },
  {
    "city": "Siegerland",
    "country": "Germany",
    "iata": "SGE",
    "id": "361",
    "lat": 50.707698822021484,
    "lng": 8.082969665527344,
    "name": "Siegerland Airport"
  },
  {
    "city": "Hamburg",
    "country": "Germany",
    "iata": "XFW",
    "id": "362",
    "lat": 53.5352783203125,
    "lng": 9.835556030273438,
    "name": "Hamburg-Finkenwerder Airport"
  },
  {
    "city": "Kiel",
    "country": "Germany",
    "iata": "KEL",
    "id": "363",
    "lat": 54.37944412231445,
    "lng": 10.145277976989746,
    "name": "Kiel-Holtenau Airport"
  },
  {
    "city": "Luebeck",
    "country": "Germany",
    "iata": "LBC",
    "id": "364",
    "lat": 53.8054008484,
    "lng": 10.7192001343,
    "name": "Lübeck Blankensee Airport"
  },
  {
    "city": "Dahlemer Binz",
    "country": "Germany",
    "iata": "\\N",
    "id": "365",
    "lat": 50.405555725,
    "lng": 6.5288891792,
    "name": "Flugplatz Dahlemer Binz"
  },
  {
    "city": "Meinerzhagen",
    "country": "Germany",
    "iata": "\\N",
    "id": "366",
    "lat": 51.099998474121094,
    "lng": 7.599999904632568,
    "name": "Meinerzhagen Airport"
  },
  {
    "city": "Arnsberg",
    "country": "Germany",
    "iata": "\\N",
    "id": "367",
    "lat": 51.483890533447266,
    "lng": 7.8983330726623535,
    "name": "Arnsberg-Menden Airport"
  },
  {
    "city": "Essen",
    "country": "Germany",
    "iata": "ESS",
    "id": "368",
    "lat": 51.40230178833008,
    "lng": 6.9373297691345215,
    "name": "Essen Mulheim Airport"
  },
  {
    "city": "Bielefeld",
    "country": "Germany",
    "iata": "BFE",
    "id": "369",
    "lat": 51.964722,
    "lng": 8.544444,
    "name": "Bielefeld Airport"
  },
  {
    "city": "Moenchengladbach",
    "country": "Germany",
    "iata": "MGL",
    "id": "370",
    "lat": 51.230278,
    "lng": 6.504444,
    "name": "Mönchengladbach Airport"
  },
  {
    "city": "Paderborn",
    "country": "Germany",
    "iata": "PAD",
    "id": "371",
    "lat": 51.614101409899995,
    "lng": 8.616319656369999,
    "name": "Paderborn Lippstadt Airport"
  },
  {
    "city": "Stadtlohn",
    "country": "Germany",
    "iata": "\\N",
    "id": "372",
    "lat": 51.99583435058594,
    "lng": 6.8405561447143555,
    "name": "Stadtlohn-Vreden Airport"
  },
  {
    "city": "Dortmund",
    "country": "Germany",
    "iata": "DTM",
    "id": "373",
    "lat": 51.51829910279999,
    "lng": 7.61223983765,
    "name": "Dortmund Airport"
  },
  {
    "city": "Augsburg",
    "country": "Germany",
    "iata": "AGB",
    "id": "374",
    "lat": 48.425278,
    "lng": 10.931667,
    "name": "Augsburg Airport"
  },
  {
    "city": "Biberach",
    "country": "Germany",
    "iata": "\\N",
    "id": "375",
    "lat": 48.111111,
    "lng": 9.762778,
    "name": "Biberach a.d. Riß Airfield"
  },
  {
    "city": "Eggenfelden",
    "country": "Germany",
    "iata": "\\N",
    "id": "376",
    "lat": 48.39611053466797,
    "lng": 12.723610877990723,
    "name": "Eggenfelden Airport"
  },
  {
    "city": "Mindelheim",
    "country": "Germany",
    "iata": "\\N",
    "id": "377",
    "lat": 48.106945,
    "lng": 10.525,
    "name": "Mindelheim-Mattsies Airfield"
  },
  {
    "city": "Oberpfaffenhofen",
    "country": "Germany",
    "iata": "OBF",
    "id": "378",
    "lat": 48.081402,
    "lng": 11.2831,
    "name": "Oberpfaffenhofen Airport"
  },
  {
    "city": "Straubing",
    "country": "Germany",
    "iata": "RBM",
    "id": "379",
    "lat": 48.90083312988281,
    "lng": 12.516667366027832,
    "name": "Straubing Airport"
  },
  {
    "city": "Vilshofen",
    "country": "Germany",
    "iata": "\\N",
    "id": "380",
    "lat": 48.6349983215332,
    "lng": 13.195555686950684,
    "name": "Vilshofen Airport"
  },
  {
    "city": "Leutkirch",
    "country": "Germany",
    "iata": "\\N",
    "id": "381",
    "lat": 47.858890533447266,
    "lng": 10.014166831970215,
    "name": "Leutkirch-Unterzeil Airport"
  },
  {
    "city": "Friedrichshafen",
    "country": "Germany",
    "iata": "FDH",
    "id": "382",
    "lat": 47.671298980699994,
    "lng": 9.51148986816,
    "name": "Friedrichshafen Airport"
  },
  {
    "city": "Parchim",
    "country": "Germany",
    "iata": "SZW",
    "id": "383",
    "lat": 53.426998,
    "lng": 11.7834,
    "name": "Schwerin Parchim Airport"
  },
  {
    "city": "Stendal",
    "country": "Germany",
    "iata": "\\N",
    "id": "384",
    "lat": 52.62888717651367,
    "lng": 11.818611145019531,
    "name": "Stendal-Borstel Airport"
  },
  {
    "city": "Aalen-heidenheim",
    "country": "Germany",
    "iata": "\\N",
    "id": "385",
    "lat": 48.77777862548828,
    "lng": 10.264721870422363,
    "name": "Aalen-Heidenheim/Elchingen Airport"
  },
  {
    "city": "Bayreuth",
    "country": "Germany",
    "iata": "BYU",
    "id": "386",
    "lat": 49.985001,
    "lng": 11.64,
    "name": "Bayreuth Airport"
  },
  {
    "city": "Burg Feuerstein",
    "country": "Germany",
    "iata": "URD",
    "id": "387",
    "lat": 49.794166564941,
    "lng": 11.133610725403,
    "name": "Burg Feuerstein Airport"
  },
  {
    "city": "Hof",
    "country": "Germany",
    "iata": "HOQ",
    "id": "388",
    "lat": 50.288612365722656,
    "lng": 11.856389045715332,
    "name": "Hof-Plauen Airport"
  },
  {
    "city": "Hassfurt",
    "country": "Germany",
    "iata": "\\N",
    "id": "389",
    "lat": 50.0180549621582,
    "lng": 10.529443740844727,
    "name": "Haßfurt-Schweinfurt Airport"
  },
  {
    "city": "Koblenz",
    "country": "Germany",
    "iata": "\\N",
    "id": "390",
    "lat": 50.325558,
    "lng": 7.528611,
    "name": "Koblenz-Winningen Airfield"
  },
  {
    "city": "Trier",
    "country": "Germany",
    "iata": "\\N",
    "id": "391",
    "lat": 49.863888,
    "lng": 6.7875,
    "name": "Trier-Föhren Airport"
  },
  {
    "city": "Speyer",
    "country": "Germany",
    "iata": "\\N",
    "id": "392",
    "lat": 49.304722,
    "lng": 8.451389,
    "name": "Speyer Airfield"
  },
  {
    "city": "Zweibruecken",
    "country": "Germany",
    "iata": "ZQW",
    "id": "393",
    "lat": 49.2094,
    "lng": 7.40056,
    "name": "Zweibrücken Airport"
  },
  {
    "city": "Donaueschingen",
    "country": "Germany",
    "iata": "ZQL",
    "id": "394",
    "lat": 47.97333145139999,
    "lng": 8.52222156525,
    "name": "Donaueschingen-Villingen Airport"
  },
  {
    "city": "Freiburg",
    "country": "Germany",
    "iata": "\\N",
    "id": "395",
    "lat": 48.022777557400005,
    "lng": 7.83249998093,
    "name": "Freiburg i. Br. Airport"
  },
  {
    "city": "Mengen",
    "country": "Germany",
    "iata": "\\N",
    "id": "396",
    "lat": 48.053890228271484,
    "lng": 9.372777938842773,
    "name": "Mengen-Hohentengen Airport"
  },
  {
    "city": "Schwaebisch Hall",
    "country": "Germany",
    "iata": "\\N",
    "id": "397",
    "lat": 49.1183319092,
    "lng": 9.783888816829998,
    "name": "Adolf Würth Airport"
  },
  {
    "city": "Soest",
    "country": "Germany",
    "iata": "\\N",
    "id": "398",
    "lat": 51.607498,
    "lng": 13.743611,
    "name": "Finsterwalde/Schacksdorf Airport"
  },
  {
    "city": "Braunschweig",
    "country": "Germany",
    "iata": "BWE",
    "id": "399",
    "lat": 52.319199,
    "lng": 10.5561,
    "name": "Braunschweig-Wolfsburg Airport"
  },
  {
    "city": "Kassel",
    "country": "Germany",
    "iata": "KSF",
    "id": "400",
    "lat": 51.417273,
    "lng": 9.384967,
    "name": "Kassel-Calden Airport"
  },
  {
    "city": "Hildesheim",
    "country": "Germany",
    "iata": "\\N",
    "id": "401",
    "lat": 52.18138885498047,
    "lng": 9.946389198303223,
    "name": "Hildesheim Airport"
  },
  {
    "city": "Bremerhaven",
    "country": "Germany",
    "iata": "BRV",
    "id": "402",
    "lat": 53.506943,
    "lng": 8.572778,
    "name": "Bremerhaven Airport"
  },
  {
    "city": "Emden",
    "country": "Germany",
    "iata": "EME",
    "id": "403",
    "lat": 53.391109,
    "lng": 7.2275,
    "name": "Emden Airport"
  },
  {
    "city": "Leer",
    "country": "Germany",
    "iata": "\\N",
    "id": "404",
    "lat": 53.271942138671875,
    "lng": 7.441667079925537,
    "name": "Leer-Papenburg Airport"
  },
  {
    "city": "Wilhelmshaven",
    "country": "Germany",
    "iata": "WVN",
    "id": "405",
    "lat": 53.502220153808594,
    "lng": 8.05222225189209,
    "name": "Wilhelmshaven-Mariensiel Airport"
  },
  {
    "city": "Borkum",
    "country": "Germany",
    "iata": "BMK",
    "id": "406",
    "lat": 53.59639,
    "lng": 6.709167,
    "name": "Borkum Airport"
  },
  {
    "city": "Norderney",
    "country": "Germany",
    "iata": "NRD",
    "id": "407",
    "lat": 53.70694351196289,
    "lng": 7.230000019073486,
    "name": "Norderney Airport"
  },
  {
    "city": "Flensburg",
    "country": "Germany",
    "iata": "FLF",
    "id": "408",
    "lat": 54.77333450317383,
    "lng": 9.378889083862305,
    "name": "Flensburg-Schäferhaus Airport"
  },
  {
    "city": "Rendsburg",
    "country": "Germany",
    "iata": "\\N",
    "id": "409",
    "lat": 54.220001220703125,
    "lng": 9.599444389343262,
    "name": "Rendsburg-Schachtholm Airport"
  },
  {
    "city": "Westerland",
    "country": "Germany",
    "iata": "GWT",
    "id": "410",
    "lat": 54.9132003784,
    "lng": 8.34047031403,
    "name": "Westerland Sylt Airport"
  },
  {
    "city": "Armari Air Force Base",
    "country": "Estonia",
    "iata": "\\N",
    "id": "411",
    "lat": 59.26029968261719,
    "lng": 24.208499908447266,
    "name": "Ämari Air Base"
  },
  {
    "city": "Kardla",
    "country": "Estonia",
    "iata": "KDL",
    "id": "412",
    "lat": 58.99079895019531,
    "lng": 22.830699920654297,
    "name": "Kärdla Airport"
  },
  {
    "city": "Kuressaare",
    "country": "Estonia",
    "iata": "URE",
    "id": "413",
    "lat": 58.22990036010742,
    "lng": 22.50950050354004,
    "name": "Kuressaare Airport"
  },
  {
    "city": "Parnu",
    "country": "Estonia",
    "iata": "EPU",
    "id": "414",
    "lat": 58.41899871826172,
    "lng": 24.47279930114746,
    "name": "Pärnu Airport"
  },
  {
    "city": "Tallinn-ulemiste International",
    "country": "Estonia",
    "iata": "TLL",
    "id": "415",
    "lat": 59.41329956049999,
    "lng": 24.832799911499997,
    "name": "Lennart Meri Tallinn Airport"
  },
  {
    "city": "Tartu",
    "country": "Estonia",
    "iata": "TAY",
    "id": "416",
    "lat": 58.3074989319,
    "lng": 26.690399169900004,
    "name": "Tartu Airport"
  },
  {
    "city": "Enontekio",
    "country": "Finland",
    "iata": "ENF",
    "id": "417",
    "lat": 68.362602233887,
    "lng": 23.424299240112,
    "name": "Enontekio Airport"
  },
  {
    "city": "Eura",
    "country": "Finland",
    "iata": "\\N",
    "id": "418",
    "lat": 61.1161003112793,
    "lng": 22.201400756835938,
    "name": "Eura Airport"
  },
  {
    "city": "Halli",
    "country": "Finland",
    "iata": "KEV",
    "id": "419",
    "lat": 61.856039,
    "lng": 24.786686,
    "name": "Halli Airport"
  },
  {
    "city": "Helsinki",
    "country": "Finland",
    "iata": "HEM",
    "id": "420",
    "lat": 60.254600524902344,
    "lng": 25.042800903320312,
    "name": "Helsinki Malmi Airport"
  },
  {
    "city": "Helsinki",
    "country": "Finland",
    "iata": "HEL",
    "id": "421",
    "lat": 60.317199707031,
    "lng": 24.963300704956,
    "name": "Helsinki Vantaa Airport"
  },
  {
    "city": "Hameenkyro",
    "country": "Finland",
    "iata": "\\N",
    "id": "422",
    "lat": 61.689701080322266,
    "lng": 23.073699951171875,
    "name": "Hameenkyro Airport"
  },
  {
    "city": "Hanko",
    "country": "Finland",
    "iata": "\\N",
    "id": "423",
    "lat": 59.848899841308594,
    "lng": 23.083599090576172,
    "name": "Hanko Airport"
  },
  {
    "city": "Hyvinkaa",
    "country": "Finland",
    "iata": "HYV",
    "id": "424",
    "lat": 60.6543998718,
    "lng": 24.8810997009,
    "name": "Hyvinkää Airfield"
  },
  {
    "city": "Kikala",
    "country": "Finland",
    "iata": "\\N",
    "id": "425",
    "lat": 60.4625015259,
    "lng": 23.6525001526,
    "name": "Kiikala Airport"
  },
  {
    "city": "Immola",
    "country": "Finland",
    "iata": "\\N",
    "id": "426",
    "lat": 61.24919891357422,
    "lng": 28.90369987487793,
    "name": "Immola Airport"
  },
  {
    "city": "Kitee",
    "country": "Finland",
    "iata": "KTQ",
    "id": "427",
    "lat": 62.1661,
    "lng": 30.073601,
    "name": "Kitee Airport"
  },
  {
    "city": "Ivalo",
    "country": "Finland",
    "iata": "IVL",
    "id": "428",
    "lat": 68.607299804688,
    "lng": 27.405300140381,
    "name": "Ivalo Airport"
  },
  {
    "city": "Joensuu",
    "country": "Finland",
    "iata": "JOE",
    "id": "429",
    "lat": 62.662899017334,
    "lng": 29.607500076294,
    "name": "Joensuu Airport"
  },
  {
    "city": "Jyvaskyla",
    "country": "Finland",
    "iata": "JYV",
    "id": "430",
    "lat": 62.399501800537,
    "lng": 25.678300857544,
    "name": "Jyvaskyla Airport"
  },
  {
    "city": "Kauhava",
    "country": "Finland",
    "iata": "KAU",
    "id": "431",
    "lat": 63.127102,
    "lng": 23.051399,
    "name": "Kauhava Airport"
  },
  {
    "city": "Kemi",
    "country": "Finland",
    "iata": "KEM",
    "id": "432",
    "lat": 65.778701782227,
    "lng": 24.582099914551,
    "name": "Kemi-Tornio Airport"
  },
  {
    "city": "Kajaani",
    "country": "Finland",
    "iata": "KAJ",
    "id": "433",
    "lat": 64.285499572754,
    "lng": 27.692399978638,
    "name": "Kajaani Airport"
  },
  {
    "city": "Kauhajoki",
    "country": "Finland",
    "iata": "KHJ",
    "id": "434",
    "lat": 62.4625015259,
    "lng": 22.3931007385,
    "name": "Kauhajoki Airport"
  },
  {
    "city": "Kruunupyy",
    "country": "Finland",
    "iata": "KOK",
    "id": "435",
    "lat": 63.721199035645,
    "lng": 23.143100738525,
    "name": "Kokkola-Pietarsaari Airport"
  },
  {
    "city": "Kemijarvi",
    "country": "Finland",
    "iata": "\\N",
    "id": "436",
    "lat": 66.712898,
    "lng": 27.156799,
    "name": "Kemijarvi Airport"
  },
  {
    "city": "Kuusamo",
    "country": "Finland",
    "iata": "KAO",
    "id": "437",
    "lat": 65.987602233887,
    "lng": 29.239400863647,
    "name": "Kuusamo Airport"
  },
  {
    "city": "Kittila",
    "country": "Finland",
    "iata": "KTT",
    "id": "438",
    "lat": 67.700996398926,
    "lng": 24.846799850464,
    "name": "Kittilä Airport"
  },
  {
    "city": "Kuopio",
    "country": "Finland",
    "iata": "KUO",
    "id": "439",
    "lat": 63.007099151611,
    "lng": 27.797800064087,
    "name": "Kuopio Airport"
  },
  {
    "city": "Vesivehmaa",
    "country": "Finland",
    "iata": "QLF",
    "id": "440",
    "lat": 61.144199,
    "lng": 25.693501,
    "name": "Lahti Vesivehmaa Airport"
  },
  {
    "city": "Lappeenranta",
    "country": "Finland",
    "iata": "LPP",
    "id": "441",
    "lat": 61.044601,
    "lng": 28.144743,
    "name": "Lappeenranta Airport"
  },
  {
    "city": "Mariehamn",
    "country": "Finland",
    "iata": "MHQ",
    "id": "442",
    "lat": 60.122200012207,
    "lng": 19.898199081421,
    "name": "Mariehamn Airport"
  },
  {
    "city": "Menkijarvi",
    "country": "Finland",
    "iata": "\\N",
    "id": "443",
    "lat": 62.94670104980469,
    "lng": 23.51889991760254,
    "name": "Menkijarvi Airport"
  },
  {
    "city": "Mikkeli",
    "country": "Finland",
    "iata": "MIK",
    "id": "444",
    "lat": 61.6866,
    "lng": 27.201799,
    "name": "Mikkeli Airport"
  },
  {
    "city": "Nummela",
    "country": "Finland",
    "iata": "\\N",
    "id": "445",
    "lat": 60.333900451699996,
    "lng": 24.2964000702,
    "name": "Nummela Airport"
  },
  {
    "city": "Oulu",
    "country": "Finland",
    "iata": "OUL",
    "id": "446",
    "lat": 64.930099487305,
    "lng": 25.354600906372,
    "name": "Oulu Airport"
  },
  {
    "city": "Piikajarvi",
    "country": "Finland",
    "iata": "\\N",
    "id": "447",
    "lat": 61.245601654052734,
    "lng": 22.19339942932129,
    "name": "Piikajarvi Airport"
  },
  {
    "city": "Pori",
    "country": "Finland",
    "iata": "POR",
    "id": "448",
    "lat": 61.461700439453,
    "lng": 21.799999237061,
    "name": "Pori Airport"
  },
  {
    "city": "Pudasjarvi",
    "country": "Finland",
    "iata": "\\N",
    "id": "449",
    "lat": 65.4021987915,
    "lng": 26.946899414100002,
    "name": "Pudasjärvi Airport"
  },
  {
    "city": "Pyhasalmi",
    "country": "Finland",
    "iata": "\\N",
    "id": "450",
    "lat": 63.7318992615,
    "lng": 25.926300048799998,
    "name": "Pyhäsalmi Airport"
  },
  {
    "city": "Pattijoki",
    "country": "Finland",
    "iata": "\\N",
    "id": "451",
    "lat": 64.6881027222,
    "lng": 24.6958007812,
    "name": "Raahe Pattijoki Airport"
  },
  {
    "city": "Rantasalmi",
    "country": "Finland",
    "iata": "\\N",
    "id": "452",
    "lat": 62.0654983521,
    "lng": 28.3565006256,
    "name": "Rantasalmi Airport"
  },
  {
    "city": "Rovaniemi",
    "country": "Finland",
    "iata": "RVN",
    "id": "453",
    "lat": 66.564796447754,
    "lng": 25.830400466919,
    "name": "Rovaniemi Airport"
  },
  {
    "city": "Rayskala",
    "country": "Finland",
    "iata": "\\N",
    "id": "454",
    "lat": 60.74470138549805,
    "lng": 24.107799530029297,
    "name": "Rayskala Airport"
  },
  {
    "city": "Savonlinna",
    "country": "Finland",
    "iata": "SVL",
    "id": "455",
    "lat": 61.943099975586,
    "lng": 28.945100784302,
    "name": "Savonlinna Airport"
  },
  {
    "city": "Selanpaa",
    "country": "Finland",
    "iata": "\\N",
    "id": "456",
    "lat": 61.062400817871094,
    "lng": 26.798900604248047,
    "name": "Selanpaa Airport"
  },
  {
    "city": "Sodankyla",
    "country": "Finland",
    "iata": "SOT",
    "id": "457",
    "lat": 67.3949966431,
    "lng": 26.6191005707,
    "name": "Sodankyla Airport"
  },
  {
    "city": "Tampere",
    "country": "Finland",
    "iata": "TMP",
    "id": "458",
    "lat": 61.414100646973,
    "lng": 23.604400634766,
    "name": "Tampere-Pirkkala Airport"
  },
  {
    "city": "Teisko",
    "country": "Finland",
    "iata": "\\N",
    "id": "459",
    "lat": 61.7733,
    "lng": 24.027,
    "name": "Teisko Airport"
  },
  {
    "city": "Turku",
    "country": "Finland",
    "iata": "TKU",
    "id": "460",
    "lat": 60.514099121094,
    "lng": 22.262800216675,
    "name": "Turku Airport"
  },
  {
    "city": "Utti",
    "country": "Finland",
    "iata": "UTI",
    "id": "461",
    "lat": 60.89640045166,
    "lng": 26.938400268555,
    "name": "Utti Air Base"
  },
  {
    "city": "Vaasa",
    "country": "Finland",
    "iata": "VAA",
    "id": "462",
    "lat": 63.050701141357,
    "lng": 21.762199401855,
    "name": "Vaasa Airport"
  },
  {
    "city": "Varkaus",
    "country": "Finland",
    "iata": "VRK",
    "id": "463",
    "lat": 62.171100616455,
    "lng": 27.868600845337,
    "name": "Varkaus Airport"
  },
  {
    "city": "Ylivieska-raudaskyla",
    "country": "Finland",
    "iata": "YLI",
    "id": "464",
    "lat": 64.0547222,
    "lng": 24.7252778,
    "name": "Ylivieska Airfield"
  },
  {
    "city": "Belfast",
    "country": "United Kingdom",
    "iata": "BFS",
    "id": "465",
    "lat": 54.6575012207,
    "lng": -6.2158298492399995,
    "name": "Belfast International Airport"
  },
  {
    "city": "Enniskillen",
    "country": "United Kingdom",
    "iata": "ENK",
    "id": "466",
    "lat": 54.39889907836914,
    "lng": -7.651669979095459,
    "name": "St Angelo Airport"
  },
  {
    "city": "Belfast",
    "country": "United Kingdom",
    "iata": "BHD",
    "id": "467",
    "lat": 54.618099212646484,
    "lng": -5.872499942779541,
    "name": "George Best Belfast City Airport"
  },
  {
    "city": "Londonderry",
    "country": "United Kingdom",
    "iata": "LDY",
    "id": "468",
    "lat": 55.04280090332031,
    "lng": -7.161109924316406,
    "name": "City of Derry Airport"
  },
  {
    "city": "Birmingham",
    "country": "United Kingdom",
    "iata": "BHX",
    "id": "469",
    "lat": 52.453899383499994,
    "lng": -1.74802994728,
    "name": "Birmingham International Airport"
  },
  {
    "city": "Coventry",
    "country": "United Kingdom",
    "iata": "CVT",
    "id": "470",
    "lat": 52.3697013855,
    "lng": -1.4797199964499999,
    "name": "Coventry Airport"
  },
  {
    "city": "Leicester",
    "country": "United Kingdom",
    "iata": "\\N",
    "id": "471",
    "lat": 52.6077995300293,
    "lng": -1.03193998336792,
    "name": "Leicester Airport"
  },
  {
    "city": "Golouchestershire",
    "country": "United Kingdom",
    "iata": "GLO",
    "id": "472",
    "lat": 51.89419937133789,
    "lng": -2.167220115661621,
    "name": "Gloucestershire Airport"
  },
  {
    "city": "Halfpenny Green",
    "country": "United Kingdom",
    "iata": "\\N",
    "id": "474",
    "lat": 52.51750183105469,
    "lng": -2.2594399452209473,
    "name": "Wolverhampton Halfpenny Green Airport"
  },
  {
    "city": "Pailton",
    "country": "United Kingdom",
    "iata": "GBA",
    "id": "475",
    "lat": 51.668095,
    "lng": -2.05694,
    "name": "Cotswold Airport"
  },
  {
    "city": "Turweston",
    "country": "United Kingdom",
    "iata": "\\N",
    "id": "476",
    "lat": 52.0407981873,
    "lng": -1.09555995464,
    "name": "Turweston Airport"
  },
  {
    "city": "Wellesbourne",
    "country": "United Kingdom",
    "iata": "\\N",
    "id": "477",
    "lat": 52.19219970703125,
    "lng": -1.6144399642944336,
    "name": "Wellesbourne Mountford Airport"
  },
  {
    "city": "Manchester",
    "country": "United Kingdom",
    "iata": "MAN",
    "id": "478",
    "lat": 53.35369873046875,
    "lng": -2.2749500274658203,
    "name": "Manchester Airport"
  },
  {
    "city": "Woodfort",
    "country": "United Kingdom",
    "iata": "\\N",
    "id": "479",
    "lat": 53.3381,
    "lng": -2.14889,
    "name": "Manchester Woodford Airport"
  },
  {
    "city": "Chivenor",
    "country": "United Kingdom",
    "iata": "\\N",
    "id": "480",
    "lat": 51.08720016479492,
    "lng": -4.1503400802612305,
    "name": "Royal Marines Base Chivenor Airport"
  },
  {
    "city": "Newquai",
    "country": "United Kingdom",
    "iata": "NQY",
    "id": "481",
    "lat": 50.44060134887695,
    "lng": -4.995409965515137,
    "name": "Newquay Cornwall Airport"
  },
  {
    "city": "Lyneham",
    "country": "United Kingdom",
    "iata": "LYE",
    "id": "482",
    "lat": 51.5051,
    "lng": -1.99343,
    "name": "RAF Lyneham"
  },
  {
    "city": "Boscombe Down",
    "country": "United Kingdom",
    "iata": "\\N",
    "id": "483",
    "lat": 51.152198791503906,
    "lng": -1.7474100589752197,
    "name": "MoD Boscombe Down Airport"
  },
  {
    "city": "Culdrose",
    "country": "United Kingdom",
    "iata": "\\N",
    "id": "484",
    "lat": 50.08610153198242,
    "lng": -5.255710124969482,
    "name": "RNAS Culdrose"
  },
  {
    "city": "St. Athan",
    "country": "United Kingdom",
    "iata": "\\N",
    "id": "485",
    "lat": 51.4048,
    "lng": -3.43575,
    "name": "MoD St. Athan"
  },
  {
    "city": "Yeovilton",
    "country": "United Kingdom",
    "iata": "YEO",
    "id": "486",
    "lat": 51.0093994140625,
    "lng": -2.638819932937622,
    "name": "RNAS Yeovilton"
  },
  {
    "city": "Haverfordwest",
    "country": "United Kingdom",
    "iata": "HAW",
    "id": "487",
    "lat": 51.833099365234375,
    "lng": -4.9611101150512695,
    "name": "Haverfordwest Airport"
  },
  {
    "city": "Cardiff",
    "country": "United Kingdom",
    "iata": "CWL",
    "id": "488",
    "lat": 51.39670181274414,
    "lng": -3.343329906463623,
    "name": "Cardiff International Airport"
  },
  {
    "city": "Swansea",
    "country": "United Kingdom",
    "iata": "SWS",
    "id": "489",
    "lat": 51.60530090332031,
    "lng": -4.0678300857543945,
    "name": "Swansea Airport"
  },
  {
    "city": "Bristol",
    "country": "United Kingdom",
    "iata": "BRS",
    "id": "490",
    "lat": 51.382702,
    "lng": -2.71909,
    "name": "Bristol Airport"
  },
  {
    "city": "Liverpool",
    "country": "United Kingdom",
    "iata": "LPL",
    "id": "491",
    "lat": 53.33359909057617,
    "lng": -2.849720001220703,
    "name": "Liverpool John Lennon Airport"
  },
  {
    "city": "London",
    "country": "United Kingdom",
    "iata": "LTN",
    "id": "492",
    "lat": 51.874698638916016,
    "lng": -0.36833301186561584,
    "name": "London Luton Airport"
  },
  {
    "city": "Plymouth",
    "country": "United Kingdom",
    "iata": "PLH",
    "id": "493",
    "lat": 50.422798,
    "lng": -4.10583,
    "name": "Plymouth City Airport"
  },
  {
    "city": "Bournemouth",
    "country": "United Kingdom",
    "iata": "BOH",
    "id": "494",
    "lat": 50.779998779296875,
    "lng": -1.8424999713897705,
    "name": "Bournemouth Airport"
  },
  {
    "city": "Southampton",
    "country": "United Kingdom",
    "iata": "SOU",
    "id": "495",
    "lat": 50.95029830932617,
    "lng": -1.3567999601364136,
    "name": "Southampton Airport"
  },
  {
    "city": "Lasham",
    "country": "United Kingdom",
    "iata": "QLA",
    "id": "496",
    "lat": 51.187198638916016,
    "lng": -1.0334999561309814,
    "name": "Lasham Airport"
  },
  {
    "city": "Alderney",
    "country": "Guernsey",
    "iata": "ACI",
    "id": "497",
    "lat": 49.706104,
    "lng": -2.21472,
    "name": "Alderney Airport"
  },
  {
    "city": "Guernsey",
    "country": "Guernsey",
    "iata": "GCI",
    "id": "498",
    "lat": 49.435001373291016,
    "lng": -2.6019699573516846,
    "name": "Guernsey Airport"
  },
  {
    "city": "Jersey",
    "country": "Jersey",
    "iata": "JER",
    "id": "499",
    "lat": 49.20790100097656,
    "lng": -2.195509910583496,
    "name": "Jersey Airport"
  },
  {
    "city": "Shoreham By Sea",
    "country": "United Kingdom",
    "iata": "ESH",
    "id": "500",
    "lat": 50.835602,
    "lng": -0.297222,
    "name": "Shoreham Airport"
  },
  {
    "city": "Biggin Hill",
    "country": "United Kingdom",
    "iata": "BQH",
    "id": "501",
    "lat": 51.33079910279999,
    "lng": 0.0324999988079,
    "name": "London Biggin Hill Airport"
  },
  {
    "city": "London",
    "country": "United Kingdom",
    "iata": "LGW",
    "id": "502",
    "lat": 51.148102,
    "lng": -0.190278,
    "name": "London Gatwick Airport"
  },
  {
    "city": "London",
    "country": "United Kingdom",
    "iata": "LCY",
    "id": "503",
    "lat": 51.505299,
    "lng": 0.055278,
    "name": "London City Airport"
  },
  {
    "city": "Farnborough",
    "country": "United Kingdom",
    "iata": "FAB",
    "id": "504",
    "lat": 51.2757987976,
    "lng": -0.776332974434,
    "name": "Farnborough Airport"
  },
  {
    "city": "Chalsgrove",
    "country": "United Kingdom",
    "iata": "\\N",
    "id": "505",
    "lat": 51.67610168457031,
    "lng": -1.0808299779891968,
    "name": "Chalgrove Airport"
  },
  {
    "city": "Blackbushe",
    "country": "United Kingdom",
    "iata": "BBS",
    "id": "506",
    "lat": 51.32389831542969,
    "lng": -0.8475000262260437,
    "name": "Blackbushe Airport"
  },
  {
    "city": "London",
    "country": "United Kingdom",
    "iata": "LHR",
    "id": "507",
    "lat": 51.4706,
    "lng": -0.461941,
    "name": "London Heathrow Airport"
  },
  {
    "city": "Southend",
    "country": "United Kingdom",
    "iata": "SEN",
    "id": "508",
    "lat": 51.5713996887207,
    "lng": 0.6955559849739075,
    "name": "Southend Airport"
  },
  {
    "city": "Lydd",
    "country": "United Kingdom",
    "iata": "LYX",
    "id": "509",
    "lat": 50.95610046386719,
    "lng": 0.9391670227050781,
    "name": "Lydd Airport"
  },
  {
    "city": "Manston",
    "country": "United Kingdom",
    "iata": "MSE",
    "id": "510",
    "lat": 51.342201,
    "lng": 1.34611,
    "name": "Kent International Airport"
  },
  {
    "city": "Brough",
    "country": "United Kingdom",
    "iata": "\\N",
    "id": "511",
    "lat": 53.7197,
    "lng": -0.566333,
    "name": "Brough Airport"
  },
  {
    "city": "Carlisle",
    "country": "United Kingdom",
    "iata": "CAX",
    "id": "512",
    "lat": 54.9375,
    "lng": -2.8091700077056885,
    "name": "Carlisle Airport"
  },
  {
    "city": "Repton",
    "country": "United Kingdom",
    "iata": "\\N",
    "id": "513",
    "lat": 53.280601501464844,
    "lng": -0.9513890147209167,
    "name": "Retford Gamston Airport"
  },
  {
    "city": "Blackpool",
    "country": "United Kingdom",
    "iata": "BLK",
    "id": "514",
    "lat": 53.77170181274414,
    "lng": -3.0286099910736084,
    "name": "Blackpool International Airport"
  },
  {
    "city": "Humberside",
    "country": "United Kingdom",
    "iata": "HUY",
    "id": "515",
    "lat": 53.57440185546875,
    "lng": -0.350832998752594,
    "name": "Humberside Airport"
  },
  {
    "city": "Barrow Island",
    "country": "United Kingdom",
    "iata": "BWF",
    "id": "516",
    "lat": 54.1286111,
    "lng": -3.2675,
    "name": "Barrow Walney Island Airport"
  },
  {
    "city": "Leeds",
    "country": "United Kingdom",
    "iata": "LBA",
    "id": "517",
    "lat": 53.86589813232422,
    "lng": -1.6605700254440308,
    "name": "Leeds Bradford Airport"
  },
  {
    "city": "Warton",
    "country": "United Kingdom",
    "iata": "WRT",
    "id": "518",
    "lat": 53.745098,
    "lng": -2.88306,
    "name": "Warton Airport"
  },
  {
    "city": "Hawarden",
    "country": "United Kingdom",
    "iata": "CEG",
    "id": "519",
    "lat": 53.1781005859375,
    "lng": -2.9777801036834717,
    "name": "Hawarden Airport"
  },
  {
    "city": "Isle Of Man",
    "country": "Isle of Man",
    "iata": "IOM",
    "id": "520",
    "lat": 54.08330154418945,
    "lng": -4.623889923095703,
    "name": "Isle of Man Airport"
  },
  {
    "city": "Newcastle",
    "country": "United Kingdom",
    "iata": "NCL",
    "id": "521",
    "lat": 55.037498474121094,
    "lng": -1.6916699409484863,
    "name": "Newcastle Airport"
  },
  {
    "city": "Teesside",
    "country": "United Kingdom",
    "iata": "MME",
    "id": "522",
    "lat": 54.50920104980469,
    "lng": -1.4294099807739258,
    "name": "Durham Tees Valley Airport"
  },
  {
    "city": "East Midlands",
    "country": "United Kingdom",
    "iata": "EMA",
    "id": "523",
    "lat": 52.8311004639,
    "lng": -1.32806003094,
    "name": "East Midlands Airport"
  },
  {
    "city": "Llanbedr",
    "country": "United Kingdom",
    "iata": "\\N",
    "id": "524",
    "lat": 52.811698913574,
    "lng": -4.1235799789429,
    "name": "Llanbedr Airport"
  },
  {
    "city": "Ternhill",
    "country": "United Kingdom",
    "iata": "\\N",
    "id": "525",
    "lat": 52.87120056152344,
    "lng": -2.533560037612915,
    "name": "RAF Ternhill"
  },
  {
    "city": "Shawbury",
    "country": "United Kingdom",
    "iata": "\\N",
    "id": "526",
    "lat": 52.79819869995117,
    "lng": -2.6680400371551514,
    "name": "RAF Shawbury"
  },
  {
    "city": "Woodvale",
    "country": "United Kingdom",
    "iata": "\\N",
    "id": "528",
    "lat": 53.5816,
    "lng": -3.05552,
    "name": "RAF Woodvale"
  },
  {
    "city": "Kirkwall",
    "country": "United Kingdom",
    "iata": "KOI",
    "id": "529",
    "lat": 58.957801818847656,
    "lng": -2.9049999713897705,
    "name": "Kirkwall Airport"
  },
  {
    "city": "Sumburgh",
    "country": "United Kingdom",
    "iata": "LSI",
    "id": "530",
    "lat": 59.87889862060547,
    "lng": -1.2955600023269653,
    "name": "Sumburgh Airport"
  },
  {
    "city": "Wick",
    "country": "United Kingdom",
    "iata": "WIC",
    "id": "531",
    "lat": 58.458900451660156,
    "lng": -3.09306001663208,
    "name": "Wick Airport"
  },
  {
    "city": "Aberdeen",
    "country": "United Kingdom",
    "iata": "ABZ",
    "id": "532",
    "lat": 57.201900482177734,
    "lng": -2.197779893875122,
    "name": "Aberdeen Dyce Airport"
  },
  {
    "city": "Inverness",
    "country": "United Kingdom",
    "iata": "INV",
    "id": "533",
    "lat": 57.54249954223633,
    "lng": -4.047500133514404,
    "name": "Inverness Airport"
  },
  {
    "city": "Glasgow",
    "country": "United Kingdom",
    "iata": "GLA",
    "id": "534",
    "lat": 55.8718986511,
    "lng": -4.43306016922,
    "name": "Glasgow International Airport"
  },
  {
    "city": "Edinburgh",
    "country": "United Kingdom",
    "iata": "EDI",
    "id": "535",
    "lat": 55.95000076293945,
    "lng": -3.372499942779541,
    "name": "Edinburgh Airport"
  },
  {
    "city": "Islay",
    "country": "United Kingdom",
    "iata": "ILY",
    "id": "536",
    "lat": 55.68190002441406,
    "lng": -6.256669998168945,
    "name": "Islay Airport"
  },
  {
    "city": "Prestwick",
    "country": "United Kingdom",
    "iata": "PIK",
    "id": "537",
    "lat": 55.5093994140625,
    "lng": -4.586669921875,
    "name": "Glasgow Prestwick Airport"
  },
  {
    "city": "Benbecula",
    "country": "United Kingdom",
    "iata": "BEB",
    "id": "538",
    "lat": 57.48109817504883,
    "lng": -7.3627800941467285,
    "name": "Benbecula Airport"
  },